{
  "lastUpdate": "2026-03-31T16:55:50.047997+08:00",
  "shops": [
    {
      "name": "老江家东北菜",
      "lat": 22.5475,
      "lng": 113.9435,
      "area": "南山",
      "subArea": "科技园",
      "rating": "4.6",
      "price": "42 元",
      "cuisine": "东北菜",
      "recs": [
        "锅包肉",
        "地三鲜",
        "东北乱炖"
      ],
      "source": "小红书",
      "delivery": "美团/饿了么",
      "tags": [
        "科技园美食",
        "🆕 新店"
      ],
      "source_link": "https://www.google.com/search?q=老江家东北菜 深圳",
      "id": "NEW_6",
      "image": "https://picsum.photos/seed/shop1/400/300"
    },
    {
      "name": "广西卷筒粉",
      "lat": 22.5465,
      "lng": 113.9445,
      "area": "南山",
      "subArea": "科技园",
      "rating": "4.5",
      "price": "18 元",
      "cuisine": "广西菜",
      "recs": [
        "卷筒粉",
        "老友粉",
        "螺蛳粉"
      ],
      "source": "小红书",
      "delivery": "美团/饿了么",
      "tags": [
        "科技园美食",
        "🆕 新店"
      ],
      "source_link": "https://www.google.com/search?q=广西卷筒粉 深圳",
      "id": "NEW_5",
      "image": "https://picsum.photos/seed/shop2/400/300"
    },
    {
      "name": "丝丝有味鸭血粉丝汤",
      "lat": 22.5455,
      "lng": 113.9455,
      "area": "南山",
      "subArea": "科技园",
      "rating": "4.4",
      "price": "25 元",
      "cuisine": "南京菜",
      "recs": [
        "鸭血粉丝汤",
        "鸭油烧饼",
        "盐水鸭"
      ],
      "source": "小红书",
      "delivery": "美团/饿了么",
      "tags": [
        "科技园美食",
        "🆕 新店"
      ],
      "source_link": "https://www.google.com/search?q=丝丝有味鸭血粉丝汤 深圳",
      "id": "NEW_4",
      "image": "https://picsum.photos/seed/shop3/400/300"
    },
    {
      "name": "胡麻牛脸颊肉拌饭",
      "lat": 22.5445,
      "lng": 113.9465,
      "area": "南山",
      "subArea": "科技园",
      "rating": "4.5",
      "price": "38 元",
      "cuisine": "韩料",
      "recs": [
        "牛脸颊肉拌饭",
        "泡菜汤",
        "韩式小菜"
      ],
      "source": "小红书",
      "delivery": "美团/饿了么",
      "tags": [
        "科技园美食",
        "🆕 新店"
      ],
      "source_link": "https://www.google.com/search?q=胡麻牛脸颊肉拌饭 深圳",
      "id": "NEW_3",
      "image": "https://picsum.photos/seed/shop4/400/300"
    },
    {
      "name": "蔬轻蔬重",
      "lat": 22.5435,
      "lng": 113.9475,
      "area": "南山",
      "subArea": "科技园",
      "rating": "4.4",
      "price": "32 元",
      "cuisine": "轻食",
      "recs": [
        "沙拉碗",
        "健康餐",
        "果汁"
      ],
      "source": "小红书",
      "delivery": "美团/饿了么",
      "tags": [
        "科技园美食",
        "🆕 新店"
      ],
      "source_link": "https://www.google.com/search?q=蔬轻蔬重 深圳",
      "id": "NEW_2",
      "image": "https://picsum.photos/seed/shop5/400/300"
    },
    {
      "name": "JPG canteen(深圳科兴店)",
      "lat": 22.5425,
      "lng": 113.9485,
      "area": "南山",
      "subArea": "科技园",
      "rating": "4.3",
      "price": "35 元",
      "cuisine": "西餐",
      "recs": [
        "意面",
        "沙拉",
        "咖啡"
      ],
      "source": "小红书",
      "delivery": "美团/饿了么",
      "tags": [
        "科技园美食",
        "🆕 新店"
      ],
      "source_link": "https://www.google.com/search?q=JPG+canteen+深圳科兴店",
      "id": "NEW_1"
    },
    {
      "id": "Q002",
      "name": "汤鹤情王记合罗面",
      "lat": 22.5435,
      "lng": 113.9445,
      "area": "南山",
      "subArea": "科技园",
      "rating": "4.5",
      "price": "28 元",
      "cuisine": "河南菜",
      "recs": [
        "合罗面",
        "酥肉",
        "卤肉"
      ],
      "source": "小红书",
      "delivery": "美团/饿了么",
      "tags": [
        "快乐朵鹅推荐"
      ]
    },
    {
      "id": "Q003",
      "name": "粤强记潮汕猪杂粿条",
      "lat": 22.5445,
      "lng": 113.9455,
      "area": "南山",
      "subArea": "科技园",
      "rating": "4.6",
      "price": "32 元",
      "cuisine": "潮汕菜",
      "recs": [
        "猪杂粿条",
        "普宁豆腐"
      ],
      "source": "小红书",
      "delivery": "美团/饿了么",
      "tags": [
        "快乐朵鹅推荐",
        "潮汕正宗"
      ]
    },
    {
      "id": "Q004",
      "name": "川夫椒麻鸡",
      "lat": 22.5425,
      "lng": 113.9465,
      "area": "南山",
      "subArea": "科技园",
      "rating": "4.5",
      "price": "35 元",
      "cuisine": "川菜",
      "recs": [
        "椒麻鸡",
        "红油抄手"
      ],
      "source": "小红书",
      "delivery": "美团/饿了么",
      "tags": [
        "快乐朵鹅推荐"
      ]
    },
    {
      "id": "Q005",
      "name": "李记潮阳牛肉",
      "lat": 22.5435,
      "lng": 113.9475,
      "area": "南山",
      "subArea": "科技园",
      "rating": "4.7",
      "price": "45 元",
      "cuisine": "潮汕菜",
      "recs": [
        "牛肉粿条",
        "手打牛肉丸"
      ],
      "source": "小红书",
      "delivery": "美团/饿了么",
      "tags": [
        "快乐朵鹅推荐",
        "潮汕正宗"
      ]
    },
    {
      "id": "Q006",
      "name": "重庆破店小面",
      "lat": 22.5445,
      "lng": 113.9485,
      "area": "南山",
      "subArea": "科技园",
      "rating": "4.4",
      "price": "22 元",
      "cuisine": "川菜",
      "recs": [
        "豌杂面",
        "酸辣粉"
      ],
      "source": "小红书",
      "delivery": "美团/饿了么",
      "tags": [
        "快乐朵鹅推荐"
      ]
    },
    {
      "id": "Q007",
      "name": "广东肠粉王",
      "lat": 22.5425,
      "lng": 113.9435,
      "area": "南山",
      "subArea": "科技园",
      "rating": "4.3",
      "price": "18 元",
      "cuisine": "粤菜",
      "recs": [
        "牛肉肠粉",
        "鸡蛋肠粉"
      ],
      "source": "小红书",
      "delivery": "美团/饿了么",
      "tags": [
        "快乐朵鹅推荐"
      ]
    },
    {
      "id": "Q008",
      "name": "湖南常德津市牛肉粉",
      "lat": 22.5435,
      "lng": 113.9445,
      "area": "南山",
      "subArea": "科技园",
      "rating": "4.5",
      "price": "25 元",
      "cuisine": "湘菜",
      "recs": [
        "牛肉粉",
        "牛腩粉"
      ],
      "source": "小红书",
      "delivery": "美团/饿了么",
      "tags": [
        "快乐朵鹅推荐"
      ]
    },
    {
      "id": "Q009",
      "name": "东北大饭包",
      "lat": 22.5445,
      "lng": 113.9455,
      "area": "南山",
      "subArea": "科技园",
      "rating": "4.4",
      "price": "26 元",
      "cuisine": "东北菜",
      "recs": [
        "大饭包",
        "锅包肉"
      ],
      "source": "小红书",
      "delivery": "美团/饿了么",
      "tags": [
        "快乐朵鹅推荐"
      ]
    },
    {
      "id": "Q010",
      "name": "江西小炒肉",
      "lat": 22.5425,
      "lng": 113.9465,
      "area": "南山",
      "subArea": "科技园",
      "rating": "4.5",
      "price": "30 元",
      "cuisine": "赣菜",
      "recs": [
        "小炒肉",
        "拌粉"
      ],
      "source": "小红书",
      "delivery": "美团/饿了么",
      "tags": [
        "快乐朵鹅推荐"
      ]
    },
    {
      "id": "1",
      "name": "木屋烧烤",
      "lat": 22.542876,
      "lng": 113.944825,
      "area": "南山",
      "subArea": "科技园",
      "rating": "4.8",
      "price": "60 元",
      "cuisine": "烧烤",
      "recs": [
        "烤羊肉串",
        "烤茄子"
      ],
      "source": "小红书",
      "address": "南山区科技园科发路5-1号一层",
      "is_brand": false,
      "source_link": "https://www.xiaohongshu.com/search_result?keyword=木屋烧烤 深圳"
    },
    {
      "id": "2",
      "name": "太二酸菜鱼",
      "lat": 22.534857,
      "lng": 113.919952,
      "area": "南山",
      "subArea": "科技园",
      "rating": "4.7",
      "price": "75 元",
      "cuisine": "川菜",
      "recs": [
        "酸菜鱼",
        "红糖糍粑"
      ],
      "source": "小红书",
      "address": "南新路3030号南山欢乐颂购物中心第四层L413号商铺",
      "is_brand": true,
      "source_link": "https://www.xiaohongshu.com/search_result?keyword=太二酸菜鱼 深圳"
    },
    {
      "id": "3",
      "name": "探鱼",
      "lat": 22.518104,
      "lng": 113.93652,
      "area": "南山",
      "subArea": "海岸城",
      "rating": "4.5",
      "price": "70 元",
      "cuisine": "烤鱼",
      "recs": [
        "清江鱼",
        "烤牛蛙"
      ],
      "source": "小红书",
      "address": "海岸城西座二楼217号",
      "is_brand": false,
      "source_link": "https://www.xiaohongshu.com/search_result?keyword=探鱼 深圳"
    },
    {
      "id": "5",
      "name": "陶陶居",
      "lat": 22.536197,
      "lng": 114.020505,
      "area": "福田",
      "subArea": "车公庙",
      "rating": "4.6",
      "price": "90 元",
      "cuisine": "粤菜",
      "recs": [
        "菠萝包",
        "大虾饺"
      ],
      "source": "小红书",
      "address": "深南大道7888号东海朗廷酒店2层",
      "is_brand": false,
      "source_link": "https://www.xiaohongshu.com/search_result?keyword=陶陶居 深圳"
    },
    {
      "id": "6",
      "name": "海底捞",
      "lat": 22.53113,
      "lng": 113.968662,
      "area": "南山",
      "subArea": "白石洲",
      "rating": "4.7",
      "price": "120 元",
      "cuisine": "火锅",
      "recs": [
        "番茄锅",
        "捞面"
      ],
      "source": "大众点评",
      "address": "沙河街道白石洲东社区白石路168号南山京基百纳广场L3-01商铺",
      "is_brand": true,
      "source_link": "https://www.dianping.com/shop/search?keyword=海底捞 深圳"
    },
    {
      "id": "14",
      "name": "喜茶",
      "lat": 22.537315,
      "lng": 113.974724,
      "area": "南山",
      "subArea": "世界之窗",
      "rating": "4.6",
      "price": "25 元",
      "cuisine": "奶茶",
      "recs": [
        "多肉葡萄",
        "芝士茶"
      ],
      "source": "小红书",
      "address": "沙河街道华夏街社区深南大道9028号益田假日广场外独栋",
      "is_brand": true,
      "source_link": "https://www.xiaohongshu.com/search_result?keyword=喜茶 深圳"
    },
    {
      "id": "19",
      "name": "陈记顺和",
      "lat": 22.6253,
      "lng": 114.076671,
      "area": "南山",
      "subArea": "白石洲",
      "rating": "4.5",
      "price": "40 元",
      "cuisine": "牛肉火锅",
      "recs": [
        "鲜牛肉",
        "手打牛肉丸"
      ],
      "source": "小红书",
      "address": "坂田街道河背村侨联西十卷三号1楼",
      "is_brand": false,
      "source_link": "https://www.xiaohongshu.com/search_result?keyword=陈记顺和 深圳"
    },
    {
      "id": "20",
      "name": "八合里",
      "lat": 22.542914,
      "lng": 114.091811,
      "area": "福田",
      "subArea": "老街",
      "rating": "4.6",
      "price": "85 元",
      "cuisine": "牛肉火锅",
      "recs": [
        "吊龙",
        "匙柄"
      ],
      "source": "小红书",
      "address": "富强社区华强北街道振中路86号爱华科研楼6栋1层1号、2号",
      "is_brand": false,
      "source_link": "https://www.xiaohongshu.com/search_result?keyword=八合里 深圳"
    },
    {
      "id": "25",
      "name": "左庭右院",
      "lat": 22.628998,
      "lng": 113.863887,
      "area": "宝安",
      "subArea": "宝安中心",
      "rating": "4.5",
      "price": "95 元",
      "cuisine": "牛肉火锅",
      "recs": [
        "鲜牛肉",
        "牛骨汤"
      ],
      "source": "小红书",
      "address": "宝安中心医院富恒社区健康服务中心西北门旁",
      "is_brand": false,
      "source_link": "https://www.xiaohongshu.com/search_result?keyword=左庭右院 深圳"
    },
    {
      "id": "26",
      "name": "蔡澜港式点心",
      "lat": 22.542404,
      "lng": 113.957118,
      "area": "南山",
      "subArea": "世界之窗",
      "rating": "4.6",
      "price": "70 元",
      "cuisine": "粤菜",
      "recs": [
        "酥皮山楂叉烧包",
        "赛螃蟹凤眼饺"
      ],
      "source": "小红书",
      "address": "粤海街道大冲社区科润路16号华润城华润置地大厦NLG07",
      "is_brand": true,
      "source_link": "https://www.xiaohongshu.com/search_result?keyword=蔡澜港式点心 深圳"
    },
    {
      "id": "31",
      "name": "白夜有米",
      "lat": 22.52472,
      "lng": 113.93681,
      "area": "南山",
      "subArea": "南头",
      "rating": "4.6",
      "price": "45 元",
      "cuisine": "创意菜",
      "recs": [
        "油封鸭牛肝菌乌冬"
      ],
      "source": "小红书",
      "address": "高新南十道深圳市软件产业基地2A207(citigo酒店2楼)",
      "is_brand": false,
      "source_link": "https://www.xiaohongshu.com/discovery/item/69b2cc9a00000000090232ef",
      "xhs_post": "69b2cc9a00000000090232ef"
    },
    {
      "id": "32",
      "name": "汤胖文",
      "lat": 22.528471,
      "lng": 113.920723,
      "area": "南山",
      "subArea": "南头",
      "rating": "4.5",
      "price": "35 元",
      "cuisine": "简餐",
      "recs": [
        "番茄牛腩饭"
      ],
      "source": "小红书",
      "address": "国兴大厦东门旁",
      "is_brand": false,
      "source_link": "https://www.xiaohongshu.com/discovery/item/69b2cc9a00000000090232ef",
      "xhs_post": "69b2cc9a00000000090232ef"
    },
    {
      "id": "33",
      "name": "呐咪傣园",
      "lat": 22.548106,
      "lng": 113.94671,
      "area": "南山",
      "subArea": "科技园",
      "rating": "4.6",
      "price": "50 元",
      "cuisine": "傣味",
      "recs": [
        "手抓饭",
        "菠萝饭"
      ],
      "source": "小红书",
      "address": "文华路与科伟路交叉口东南40米",
      "is_brand": false,
      "source_link": "https://www.xiaohongshu.com/discovery/item/69b2cc9a00000000090232ef",
      "xhs_post": "69b2cc9a00000000090232ef"
    },
    {
      "id": "34",
      "name": "国记正宗海南粉",
      "lat": 22.532506,
      "lng": 113.914552,
      "area": "南山",
      "subArea": "科技园",
      "rating": "4.4",
      "price": "25 元",
      "cuisine": "海南菜",
      "recs": [
        "猪肉粉",
        "海南粉"
      ],
      "source": "小红书",
      "address": "南头街道前海花园1栋桃园路242号",
      "is_brand": false,
      "source_link": "https://www.xiaohongshu.com/discovery/item/69b2cc9a00000000090232ef",
      "xhs_post": "69b2cc9a00000000090232ef"
    },
    {
      "id": "36",
      "name": "粤菜馆",
      "lat": 22.541998,
      "lng": 113.92708,
      "area": "南山",
      "subArea": "南头",
      "rating": "4.4",
      "price": "55 元",
      "cuisine": "粤菜",
      "recs": [
        "烧鹅",
        "叉烧饭"
      ],
      "source": "小红书",
      "address": "南头街道艺园路名家富居商业综合楼2楼",
      "is_brand": false,
      "source_link": "https://www.xiaohongshu.com/search_result?keyword=粤菜馆 深圳"
    },
    {
      "id": "43",
      "name": "饺子馆",
      "lat": 22.53523,
      "lng": 113.966857,
      "area": "南山",
      "subArea": "白石洲",
      "rating": "4.4",
      "price": "24 元",
      "cuisine": "面食",
      "recs": [
        "猪肉白菜饺",
        "韭菜鸡蛋饺"
      ],
      "source": "小红书",
      "address": "白石洲石洲中路西一坊30号",
      "is_brand": false,
      "source_link": "https://www.xiaohongshu.com/search_result?keyword=饺子馆 深圳"
    },
    {
      "id": "45",
      "name": "四季椰林",
      "lat": 22.54248,
      "lng": 113.954464,
      "area": "南山",
      "subArea": "科技园",
      "rating": "4.7",
      "price": "120 元",
      "cuisine": "海南菜",
      "recs": [
        "椰子鸡",
        "竹荪",
        "珍珠马蹄"
      ],
      "source": "小红书",
      "address": "粤海街道深南大道华润置地大厦D座L3层NL301商铺",
      "is_brand": false,
      "source_link": "https://www.xiaohongshu.com/search_result?keyword=四季椰林 深圳"
    },
    {
      "id": "46",
      "name": "润园四季",
      "lat": 22.549239,
      "lng": 113.944015,
      "area": "南山",
      "subArea": "科技园",
      "rating": "4.6",
      "price": "100 元",
      "cuisine": "海南菜",
      "recs": [
        "椰子鸡",
        "腊味煲仔饭"
      ],
      "source": "小红书",
      "address": "科技园社区科苑路15号科兴科学园B栋G-19",
      "is_brand": false,
      "source_link": "https://www.xiaohongshu.com/search_result?keyword=润园四季 深圳"
    },
    {
      "id": "48",
      "name": "费大厨辣椒炒肉",
      "lat": 22.528262,
      "lng": 113.952006,
      "area": "南山",
      "subArea": "科技园",
      "rating": "4.6",
      "price": "55 元",
      "cuisine": "湘菜",
      "recs": [
        "辣椒炒肉",
        "皮蛋青椒擂茄子"
      ],
      "source": "小红书",
      "address": "金地威新中心C座L1",
      "is_brand": false,
      "source_link": "https://www.xiaohongshu.com/search_result?keyword=费大厨辣椒炒肉 深圳"
    },
    {
      "id": "49",
      "name": "农耕记",
      "lat": 22.54273,
      "lng": 113.946086,
      "area": "南山",
      "subArea": "科技园",
      "rating": "4.5",
      "price": "60 元",
      "cuisine": "湘菜",
      "recs": [
        "衡东脆肚",
        "土猪肉汤"
      ],
      "source": "小红书",
      "address": "粤海街道科苑北路与科发路交汇处中中电长城大厦乐洲L3-02号商铺",
      "is_brand": false,
      "source_link": "https://www.xiaohongshu.com/search_result?keyword=农耕记 深圳"
    },
    {
      "id": "50",
      "name": "八合里牛肉火锅",
      "lat": 22.527677,
      "lng": 114.027105,
      "area": "福田",
      "subArea": "车公庙",
      "rating": "4.7",
      "price": "90 元",
      "cuisine": "牛肉火锅",
      "recs": [
        "吊龙",
        "匙柄",
        "牛肉丸"
      ],
      "source": "大众点评",
      "address": "沙头街道下沙社区滨河路9289号下沙村京基滨河时代广场L401",
      "is_brand": false,
      "source_link": "https://www.dianping.com/shop/search?keyword=八合里牛肉火锅 深圳"
    },
    {
      "id": "51",
      "name": "陈鹏鹏潮汕菜",
      "lat": 22.538432,
      "lng": 114.02561,
      "area": "福田",
      "subArea": "车公庙",
      "rating": "4.6",
      "price": "80 元",
      "cuisine": "潮汕菜",
      "recs": [
        "卤鹅",
        "蚝仔烙"
      ],
      "source": "小红书",
      "address": "香林路东海花园二期福禄居西区4号1层G13AG15",
      "is_brand": false,
      "source_link": "https://www.xiaohongshu.com/search_result?keyword=陈鹏鹏潮汕菜 深圳"
    },
    {
      "id": "52",
      "name": "莆田餐厅",
      "lat": 22.542825,
      "lng": 114.069175,
      "area": "福田",
      "subArea": "CBD",
      "rating": "4.7",
      "price": "110 元",
      "cuisine": "闽菜",
      "recs": [
        "百秒黄花鱼",
        "莆田卤面"
      ],
      "source": "小红书",
      "address": "橄榄鹏苑B栋南门旁(岗厦北地铁站18号口步行350米)",
      "is_brand": false,
      "source_link": "https://www.xiaohongshu.com/search_result?keyword=莆田餐厅 深圳"
    },
    {
      "id": "53",
      "name": "1949全鸭季",
      "lat": 22.525517,
      "lng": 113.989367,
      "area": "福田",
      "subArea": "CBD",
      "rating": "4.6",
      "price": "150 元",
      "cuisine": "京菜",
      "recs": [
        "烤鸭",
        "芥末鸭掌"
      ],
      "source": "小红书",
      "address": "白石路东8号OPLAZA欢乐海岸购物中心",
      "is_brand": false,
      "source_link": "https://www.xiaohongshu.com/search_result?keyword=1949全鸭季 深圳"
    },
    {
      "id": "54",
      "name": "大蔬无界",
      "lat": 22.542825,
      "lng": 114.069175,
      "area": "福田",
      "subArea": "CBD",
      "rating": "4.5",
      "price": "130 元",
      "cuisine": "素食",
      "recs": [
        "黑松露炒饭",
        "藜麦沙拉"
      ],
      "source": "小红书",
      "address": "橄榄鹏苑B栋南门旁(岗厦北地铁站18号口步行350米)",
      "is_brand": false,
      "source_link": "https://www.xiaohongshu.com/search_result?keyword=大蔬无界 深圳"
    },
    {
      "id": "55",
      "name": "利宝阁",
      "lat": 22.517503,
      "lng": 113.933352,
      "area": "南山",
      "subArea": "后海",
      "rating": "4.8",
      "price": "200 元",
      "cuisine": "粤菜",
      "recs": [
        "乳鸽",
        "虾饺",
        "流沙包"
      ],
      "source": "大众点评",
      "address": "中洲控股中心A座一楼美食花园A11",
      "is_brand": false,
      "source_link": "https://www.dianping.com/shop/search?keyword=利宝阁 深圳"
    },
    {
      "id": "56",
      "name": "翠园",
      "lat": 22.487764,
      "lng": 113.928505,
      "area": "南山",
      "subArea": "后海",
      "rating": "4.7",
      "price": "180 元",
      "cuisine": "粤菜",
      "recs": [
        "冰镇咕噜肉",
        "乳鸽"
      ],
      "source": "小红书",
      "address": "翠苑小区北门旁(东角头地铁站D口步行260米)",
      "is_brand": false,
      "source_link": "https://www.xiaohongshu.com/search_result?keyword=翠园 深圳"
    },
    {
      "id": "57",
      "name": "炳胜品味",
      "lat": 22.516322,
      "lng": 113.947192,
      "area": "南山",
      "subArea": "后海",
      "rating": "4.6",
      "price": "140 元",
      "cuisine": "粤菜",
      "recs": [
        "脆皮叉烧",
        "菠萝包"
      ],
      "source": "小红书",
      "address": "海德三道深圳湾万象城A区4层L418号店铺",
      "is_brand": false,
      "source_link": "https://www.xiaohongshu.com/search_result?keyword=炳胜品味 深圳"
    },
    {
      "id": "58",
      "name": "客语",
      "lat": 22.517289,
      "lng": 113.93548,
      "area": "南山",
      "subArea": "海岸城",
      "rating": "4.5",
      "price": "70 元",
      "cuisine": "客家菜",
      "recs": [
        "古法手撕盐焗鸡",
        "客家豆腐"
      ],
      "source": "小红书",
      "address": "粤海街道海珠社区文心五路33号海岸城广场516",
      "is_brand": false,
      "source_link": "https://www.xiaohongshu.com/search_result?keyword=客语 深圳"
    },
    {
      "id": "59",
      "name": "桂语江南",
      "lat": 22.517756,
      "lng": 113.935299,
      "area": "南山",
      "subArea": "海岸城",
      "rating": "4.6",
      "price": "120 元",
      "cuisine": "江浙菜",
      "recs": [
        "松鼠桂鱼",
        "龙井虾仁"
      ],
      "source": "小红书",
      "address": "文心五路33号海岸城购物中心2层第245号",
      "is_brand": false,
      "source_link": "https://www.xiaohongshu.com/search_result?keyword=桂语江南 深圳"
    },
    {
      "id": "60",
      "name": "杏棠林",
      "lat": 22.563541,
      "lng": 113.896104,
      "area": "宝安",
      "subArea": "翻身",
      "rating": "4.6",
      "price": "75 元",
      "cuisine": "粤菜",
      "recs": [
        "乳鸽",
        "叉烧"
      ],
      "source": "小红书",
      "address": "自由路2号(翻身地铁站C口步行460米)",
      "is_brand": false,
      "source_link": "https://www.xiaohongshu.com/search_result?keyword=杏棠林 深圳"
    },
    {
      "id": "61",
      "name": "蘩楼",
      "lat": 22.554382,
      "lng": 113.896775,
      "area": "宝安",
      "subArea": "翻身",
      "rating": "4.7",
      "price": "85 元",
      "cuisine": "粤菜",
      "recs": [
        "虾饺",
        "红米肠",
        "蒸排骨"
      ],
      "source": "小红书",
      "address": "华创达中心商务大厦东南门旁",
      "is_brand": false,
      "source_link": "https://www.xiaohongshu.com/search_result?keyword=蘩楼 深圳"
    },
    {
      "id": "62",
      "name": "陶德砂锅",
      "lat": 22.536423,
      "lng": 114.089469,
      "area": "宝安",
      "subArea": "宝安中心",
      "rating": "4.5",
      "price": "50 元",
      "cuisine": "川菜",
      "recs": [
        "青豆肥牛",
        "砂锅土豆片"
      ],
      "source": "小红书",
      "address": "南园街道华发南路2号上步中学5-7号铺",
      "is_brand": false,
      "source_link": "https://www.xiaohongshu.com/search_result?keyword=陶德砂锅 深圳"
    },
    {
      "id": "63",
      "name": "玛珍塔",
      "lat": 22.628998,
      "lng": 113.863887,
      "area": "宝安",
      "subArea": "宝安中心",
      "rating": "4.6",
      "price": "90 元",
      "cuisine": "东南亚菜",
      "recs": [
        "冬阴功",
        "咖喱蟹"
      ],
      "source": "小红书",
      "address": "宝安中心医院富恒社区健康服务中心西北门旁",
      "is_brand": false,
      "source_link": "https://www.xiaohongshu.com/search_result?keyword=玛珍塔 深圳"
    },
    {
      "id": "64",
      "name": "一绪に",
      "lat": 22.554575,
      "lng": 113.887233,
      "area": "宝安",
      "subArea": "宝安中心",
      "rating": "4.5",
      "price": "130 元",
      "cuisine": "日料",
      "recs": [
        "和牛寿喜烧",
        "海鲜拼盘"
      ],
      "source": "小红书",
      "address": "宝安中心(地铁站)",
      "is_brand": false,
      "source_link": "https://www.xiaohongshu.com/search_result?keyword=一绪に 深圳"
    },
    {
      "id": "65",
      "name": "姚姚酸菜鱼",
      "lat": 22.551075,
      "lng": 113.947736,
      "area": "南山",
      "subArea": "南头",
      "rating": "4.5",
      "price": "70 元",
      "cuisine": "川菜",
      "recs": [
        "酸菜鱼",
        "小酥肉"
      ],
      "source": "小红书",
      "address": "南山区粤海街道科技园社区深南路科技工业园50号小区澳特创新中心L1-19号铺",
      "is_brand": false,
      "source_link": "https://www.xiaohongshu.com/search_result?keyword=姚姚酸菜鱼 深圳"
    },
    {
      "id": "66",
      "name": "井格重庆火锅",
      "lat": 22.528506,
      "lng": 113.914424,
      "area": "南山",
      "subArea": "前海",
      "rating": "4.4",
      "price": "100 元",
      "cuisine": "火锅",
      "recs": [
        "毛肚",
        "鸭肠",
        "黄喉"
      ],
      "source": "大众点评",
      "address": "学府路234号新德家园一楼c5-1",
      "is_brand": false,
      "source_link": "https://www.dianping.com/shop/search?keyword=井格重庆火锅 深圳"
    },
    {
      "id": "67",
      "name": "怂重庆火锅厂",
      "lat": 22.528506,
      "lng": 113.914424,
      "area": "南山",
      "subArea": "前海",
      "rating": "4.6",
      "price": "110 元",
      "cuisine": "火锅",
      "recs": [
        "鲜切黄牛肉",
        "鸭血"
      ],
      "source": "小红书",
      "address": "学府路234号新德家园一楼c5-1",
      "is_brand": false,
      "source_link": "https://www.xiaohongshu.com/search_result?keyword=怂重庆火锅厂 深圳"
    },
    {
      "id": "68",
      "name": "珮姐老火锅",
      "lat": 22.517564,
      "lng": 113.939519,
      "area": "南山",
      "subArea": "南头",
      "rating": "4.5",
      "price": "105 元",
      "cuisine": "火锅",
      "recs": [
        "贡菜丸子",
        "屠场毛肚"
      ],
      "source": "小红书",
      "address": "粤海街道海珠社区后海滨路3019凯宾斯基酒店裙楼2层珮姐老火锅",
      "is_brand": false,
      "source_link": "https://www.xiaohongshu.com/search_result?keyword=珮姐老火锅 深圳"
    },
    {
      "id": "70",
      "name": "胜记",
      "lat": 22.545667,
      "lng": 114.104191,
      "area": "福田",
      "subArea": "百花",
      "rating": "4.6",
      "price": "130 元",
      "cuisine": "粤菜",
      "recs": [
        "鸽吞翅",
        "荔枝柴烧鸡"
      ],
      "source": "小红书",
      "address": "红岭中路1003号荔枝公园东侧门南60米",
      "is_brand": false,
      "source_link": "https://www.xiaohongshu.com/search_result?keyword=胜记 深圳"
    },
    {
      "id": "71",
      "name": "金稻园砂锅粥",
      "lat": 22.537969,
      "lng": 114.091093,
      "area": "福田",
      "subArea": "华强北",
      "rating": "4.5",
      "price": "80 元",
      "cuisine": "潮汕菜",
      "recs": [
        "虾蟹粥",
        "炒粿条"
      ],
      "source": "大众点评",
      "address": "南园街道南园路159号(华强南地铁站B口步行490米)",
      "is_brand": false,
      "source_link": "https://www.dianping.com/shop/search?keyword=金稻园砂锅粥 深圳"
    },
    {
      "id": "72",
      "name": "潮德阿水",
      "lat": 22.483295,
      "lng": 113.91581,
      "area": "福田",
      "subArea": "华强北",
      "rating": "4.4",
      "price": "70 元",
      "cuisine": "潮汕菜",
      "recs": [
        "牛肉丸",
        "干炒牛河"
      ],
      "source": "小红书",
      "address": "海上世界船前广场2栋3楼潮德阿水牛肉火锅",
      "is_brand": false,
      "source_link": "https://www.xiaohongshu.com/search_result?keyword=潮德阿水 深圳"
    },
    {
      "id": "81",
      "name": "保利剧院美食",
      "lat": 22.5165,
      "lng": 113.9365,
      "area": "南山",
      "subArea": "后海",
      "rating": "4.4",
      "price": "45 元",
      "cuisine": "简餐",
      "recs": [
        "意面",
        "沙拉"
      ],
      "source": "小红书",
      "is_brand": false,
      "source_link": "https://www.xiaohongshu.com/search_result?keyword=保利剧院美食 深圳"
    },
    {
      "id": "82",
      "name": "深圳湾万象城美食",
      "lat": 22.5163,
      "lng": 113.9472,
      "area": "南山",
      "subArea": "后海",
      "rating": "4.6",
      "price": "80 元",
      "cuisine": "美食广场",
      "recs": [
        "精品简餐",
        "甜品"
      ],
      "source": "小红书",
      "is_brand": false,
      "source_link": "https://www.xiaohongshu.com/search_result?keyword=深圳湾万象城美食 深圳"
    },
    {
      "id": "83",
      "name": "南头古城美食",
      "lat": 22.5425,
      "lng": 113.9215,
      "area": "南山",
      "subArea": "南头",
      "rating": "4.5",
      "price": "35 元",
      "cuisine": "小吃",
      "recs": [
        "古城小吃",
        "特色菜"
      ],
      "source": "小红书",
      "is_brand": false,
      "source_link": "https://www.xiaohongshu.com/search_result?keyword=南头古城美食 深圳"
    },
    {
      "id": "86",
      "name": "购物公园美食",
      "lat": 22.5335,
      "lng": 114.0535,
      "area": "福田",
      "subArea": "CBD",
      "rating": "4.5",
      "price": "50 元",
      "cuisine": "美食广场",
      "recs": [
        "精品简餐",
        "特色菜"
      ],
      "source": "小红书",
      "is_brand": false,
      "source_link": "https://www.xiaohongshu.com/search_result?keyword=购物公园美食 深圳"
    },
    {
      "id": "87",
      "name": "会展中心美食",
      "lat": 22.5335,
      "lng": 114.0635,
      "area": "福田",
      "subArea": "CBD",
      "rating": "4.4",
      "price": "45 元",
      "cuisine": "简餐",
      "recs": [
        "商务套餐",
        "简餐"
      ],
      "source": "小红书",
      "is_brand": false,
      "source_link": "https://www.xiaohongshu.com/search_result?keyword=会展中心美食 深圳"
    },
    {
      "id": "88",
      "name": "岗厦北美食",
      "lat": 22.5395,
      "lng": 114.0735,
      "area": "福田",
      "subArea": "岗厦",
      "rating": "4.3",
      "price": "35 元",
      "cuisine": "快餐",
      "recs": [
        "猪脚饭",
        "烧腊饭"
      ],
      "source": "小红书",
      "is_brand": false,
      "source_link": "https://www.xiaohongshu.com/search_result?keyword=岗厦北美食 深圳"
    },
    {
      "id": "93",
      "name": "宝安中心美食",
      "lat": 22.5545,
      "lng": 113.8875,
      "area": "宝安",
      "subArea": "宝安中心",
      "rating": "4.5",
      "price": "45 元",
      "cuisine": "美食广场",
      "recs": [
        "各地美食",
        "特色菜"
      ],
      "source": "小红书",
      "is_brand": false,
      "source_link": "https://www.xiaohongshu.com/search_result?keyword=宝安中心美食 深圳"
    },
    {
      "id": "94",
      "name": "壹方城美食",
      "lat": 22.5555,
      "lng": 113.8885,
      "area": "宝安",
      "subArea": "宝安中心",
      "rating": "4.6",
      "price": "60 元",
      "cuisine": "美食广场",
      "recs": [
        "精品美食",
        "特色菜"
      ],
      "source": "小红书",
      "is_brand": false,
      "source_link": "https://www.xiaohongshu.com/search_result?keyword=壹方城美食 深圳"
    },
    {
      "id": "95",
      "name": "潮汕汤粉王",
      "lat": 22.5445,
      "lng": 113.9445,
      "area": "南山",
      "subArea": "科技园",
      "rating": "4.4",
      "price": "22 元",
      "cuisine": "潮汕菜",
      "recs": [
        "牛肉丸汤粉",
        "牛杂汤"
      ],
      "source": "小红书",
      "is_brand": false,
      "source_link": "https://www.xiaohongshu.com/search_result?keyword=潮汕汤粉王 深圳"
    },
    {
      "id": "96",
      "name": "重庆小面",
      "lat": 22.5425,
      "lng": 113.9465,
      "area": "南山",
      "subArea": "科技园",
      "rating": "4.3",
      "price": "18 元",
      "cuisine": "川菜",
      "recs": [
        "豌杂面",
        "小面"
      ],
      "source": "小红书",
      "is_brand": false,
      "source_link": "https://www.xiaohongshu.com/search_result?keyword=重庆小面 深圳"
    },
    {
      "id": "98",
      "name": "东北饺子",
      "lat": 22.5415,
      "lng": 113.9475,
      "area": "南山",
      "subArea": "科技园",
      "rating": "4.4",
      "price": "28 元",
      "cuisine": "东北菜",
      "recs": [
        "猪肉白菜饺",
        "锅包肉"
      ],
      "source": "小红书",
      "is_brand": false,
      "source_link": "https://www.xiaohongshu.com/search_result?keyword=东北饺子 深圳"
    },
    {
      "id": "99",
      "name": "广东肠粉",
      "lat": 22.5405,
      "lng": 113.9485,
      "area": "南山",
      "subArea": "科技园",
      "rating": "4.3",
      "price": "15 元",
      "cuisine": "粤菜",
      "recs": [
        "牛肉肠粉",
        "鸡蛋肠粉"
      ],
      "source": "小红书",
      "is_brand": false,
      "source_link": "https://www.xiaohongshu.com/search_result?keyword=广东肠粉 深圳"
    },
    {
      "id": "101",
      "name": "湘间田舍",
      "lat": 22.5425,
      "lng": 113.9445,
      "area": "南山",
      "subArea": "科技园",
      "rating": "4.6",
      "price": "45 元",
      "cuisine": "湘菜",
      "recs": [
        "小炒黄牛肉",
        "攸县香干"
      ],
      "source": "小红书",
      "delivery": "美团/饿了么",
      "is_brand": false,
      "source_link": "https://www.xiaohongshu.com/search_result?keyword=湘间田舍 深圳"
    },
    {
      "id": "109",
      "name": "太二酸菜鱼",
      "lat": 22.5175,
      "lng": 113.9355,
      "area": "南山",
      "subArea": "海岸城",
      "rating": "4.7",
      "price": "75 元",
      "cuisine": "川菜",
      "recs": [
        "酸菜鱼",
        "红糖糍粑"
      ],
      "source": "小红书",
      "delivery": "美团/饿了么",
      "is_brand": true,
      "source_link": "https://www.xiaohongshu.com/search_result?keyword=太二酸菜鱼 深圳"
    },
    {
      "id": "110",
      "name": "怂重庆火锅",
      "lat": 22.5165,
      "lng": 113.9365,
      "area": "南山",
      "subArea": "后海",
      "rating": "4.6",
      "price": "95 元",
      "cuisine": "火锅",
      "recs": [
        "鲜切黄牛肉",
        "鸭血豆腐"
      ],
      "source": "小红书",
      "delivery": "美团",
      "is_brand": false,
      "source_link": "https://www.xiaohongshu.com/search_result?keyword=怂重庆火锅 深圳"
    },
    {
      "id": "111",
      "name": "九田家黑牛烤肉",
      "lat": 22.5155,
      "lng": 113.9375,
      "area": "南山",
      "subArea": "后海",
      "rating": "4.5",
      "price": "85 元",
      "cuisine": "烤肉",
      "recs": [
        "黑牛肋条",
        "芝士玉米"
      ],
      "source": "小红书",
      "delivery": "美团/饿了么",
      "is_brand": false,
      "source_link": "https://www.xiaohongshu.com/search_result?keyword=九田家黑牛烤肉 深圳"
    },
    {
      "id": "112",
      "name": "陈记顺和牛肉火锅",
      "lat": 22.5335,
      "lng": 114.0335,
      "area": "福田",
      "subArea": "车公庙",
      "rating": "4.6",
      "price": "80 元",
      "cuisine": "牛肉火锅",
      "recs": [
        "鲜牛肉",
        "手打牛肉丸"
      ],
      "source": "小红书",
      "delivery": "美团",
      "is_brand": false,
      "source_link": "https://www.xiaohongshu.com/search_result?keyword=陈记顺和牛肉火锅 深圳"
    },
    {
      "id": "113",
      "name": "探鱼",
      "lat": 22.5345,
      "lng": 114.0545,
      "area": "福田",
      "subArea": "CBD",
      "rating": "4.5",
      "price": "70 元",
      "cuisine": "烤鱼",
      "recs": [
        "清江鱼",
        "烤牛蛙"
      ],
      "source": "小红书",
      "delivery": "美团/饿了么",
      "is_brand": false,
      "source_link": "https://www.xiaohongshu.com/search_result?keyword=探鱼 深圳"
    },
    {
      "id": "116",
      "name": "木屋烧烤",
      "lat": 22.5455,
      "lng": 114.0865,
      "area": "福田",
      "subArea": "华强北",
      "rating": "4.6",
      "price": "60 元",
      "cuisine": "烧烤",
      "recs": [
        "烤羊肉串",
        "烤茄子"
      ],
      "source": "小红书",
      "delivery": "美团/饿了么",
      "is_brand": false,
      "source_link": "https://www.xiaohongshu.com/search_result?keyword=木屋烧烤 深圳"
    },
    {
      "id": "118",
      "name": "八合里牛肉火锅",
      "lat": 22.5545,
      "lng": 113.8875,
      "area": "宝安",
      "subArea": "宝安中心",
      "rating": "4.7",
      "price": "85 元",
      "cuisine": "牛肉火锅",
      "recs": [
        "吊龙",
        "匙柄"
      ],
      "source": "小红书",
      "delivery": "美团",
      "is_brand": false,
      "source_link": "https://www.xiaohongshu.com/search_result?keyword=八合里牛肉火锅 深圳"
    },
    {
      "id": "119",
      "name": "蘩楼",
      "lat": 22.5635,
      "lng": 113.8965,
      "area": "宝安",
      "subArea": "翻身",
      "rating": "4.7",
      "price": "80 元",
      "cuisine": "粤菜",
      "recs": [
        "虾饺",
        "红米肠"
      ],
      "source": "小红书",
      "delivery": "美团/饿了么",
      "is_brand": false,
      "source_link": "https://www.xiaohongshu.com/search_result?keyword=蘩楼 深圳"
    },
    {
      "id": "120",
      "name": "润园四季椰子鸡",
      "lat": 22.5555,
      "lng": 113.8885,
      "area": "宝安",
      "subArea": "宝安中心",
      "rating": "4.6",
      "price": "100 元",
      "cuisine": "海南菜",
      "recs": [
        "椰子鸡",
        "竹荪"
      ],
      "source": "小红书",
      "delivery": "美团",
      "is_brand": false,
      "source_link": "https://www.xiaohongshu.com/search_result?keyword=润园四季椰子鸡 深圳"
    },
    {
      "id": "140",
      "name": "南头古城私房菜",
      "lat": 22.5435,
      "lng": 113.9225,
      "area": "南山",
      "subArea": "南头",
      "rating": "4.8",
      "price": "50 元",
      "cuisine": "家常菜",
      "recs": [
        "红烧肉",
        "清蒸鱼"
      ],
      "source": "小红书",
      "delivery": "美团/饿了么",
      "tags": "古城里",
      "source_link": "https://www.xiaohongshu.com/search_result?keyword=南头古城私房菜 深圳"
    },
    {
      "id": "142",
      "name": "湖南米粉 (郴州)",
      "lat": 22.5355,
      "lng": 114.0555,
      "area": "福田",
      "subArea": "CBD",
      "rating": "4.7",
      "price": "20 元",
      "cuisine": "湘菜",
      "recs": [
        "鱼粉",
        "杀猪粉"
      ],
      "source": "小红书",
      "delivery": "美团/饿了么",
      "tags": "郴州正宗",
      "source_link": "https://www.xiaohongshu.com/search_result?keyword=湖南米粉 (郴州) 深圳"
    },
    {
      "id": "201",
      "name": "木屋烧烤 (科发路店)",
      "lat": 22.5429,
      "lng": 113.9448,
      "area": "南山",
      "subArea": "科技园",
      "rating": "4.8",
      "price": "65 元",
      "cuisine": "烧烤",
      "recs": [
        "烤羊肉串",
        "烤茄子",
        "蒜蓉生蚝"
      ],
      "source": "小红书",
      "delivery": "美团/饿了么",
      "tags": [
        "本地老店",
        "夜宵"
      ],
      "source_link": "https://www.xiaohongshu.com/search_result?keyword=木屋烧烤 (科发路店) 深圳"
    },
    {
      "id": "202",
      "name": "探鱼 (海岸城店)",
      "lat": 22.5175,
      "lng": 113.9355,
      "area": "南山",
      "subArea": "海岸城",
      "rating": "4.7",
      "price": "75 元",
      "cuisine": "烤鱼",
      "recs": [
        "鲜青椒爽麻鱼",
        "蒜香蝴蝶鱼"
      ],
      "source": "小红书",
      "delivery": "美团/饿了么",
      "tags": [
        "高分宝藏"
      ],
      "source_link": "https://www.xiaohongshu.com/search_result?keyword=探鱼 (海岸城店) 深圳"
    },
    {
      "id": "203",
      "name": "费大厨辣椒炒肉 (万象天地店)",
      "lat": 22.5425,
      "lng": 113.9525,
      "area": "南山",
      "subArea": "科技园",
      "rating": "4.7",
      "price": "58 元",
      "cuisine": "湘菜",
      "recs": [
        "辣椒炒肉",
        "皮蛋青椒擂茄子"
      ],
      "source": "小红书",
      "delivery": "美团/饿了么",
      "tags": [
        "湘菜正宗"
      ],
      "source_link": "https://www.xiaohongshu.com/search_result?keyword=费大厨辣椒炒肉 (万象天地店) 深圳"
    },
    {
      "id": "204",
      "name": "四季椰林 (华润置地店)",
      "lat": 22.5425,
      "lng": 113.9545,
      "area": "南山",
      "subArea": "科技园",
      "rating": "4.8",
      "price": "120 元",
      "cuisine": "海南菜",
      "recs": [
        "椰子鸡",
        "竹荪",
        "珍珠马蹄"
      ],
      "source": "小红书",
      "delivery": "美团",
      "tags": [
        "高分宝藏",
        "深圳连锁"
      ],
      "source_link": "https://www.xiaohongshu.com/search_result?keyword=四季椰林 (华润置地店) 深圳"
    },
    {
      "id": "205",
      "name": "润园四季椰子鸡 (深大店)",
      "lat": 22.5315,
      "lng": 113.9385,
      "area": "南山",
      "subArea": "深大",
      "rating": "4.7",
      "price": "100 元",
      "cuisine": "海南菜",
      "recs": [
        "椰子鸡",
        "腊味煲仔饭"
      ],
      "source": "小红书",
      "delivery": "美团",
      "tags": [
        "深圳连锁"
      ],
      "source_link": "https://www.xiaohongshu.com/search_result?keyword=润园四季椰子鸡 (深大店) 深圳"
    },
    {
      "id": "206",
      "name": "八合里牛肉火锅 (科技园店)",
      "lat": 22.5445,
      "lng": 113.9465,
      "area": "南山",
      "subArea": "科技园",
      "rating": "4.7",
      "price": "90 元",
      "cuisine": "牛肉火锅",
      "recs": [
        "吊龙",
        "匙柄",
        "手打牛肉丸"
      ],
      "source": "小红书",
      "delivery": "美团",
      "tags": [
        "潮汕正宗",
        "深圳连锁"
      ],
      "source_link": "https://www.xiaohongshu.com/search_result?keyword=八合里牛肉火锅 (科技园店) 深圳"
    },
    {
      "id": "207",
      "name": "陈记顺和牛肉火锅 (车公庙店)",
      "lat": 22.5335,
      "lng": 114.0335,
      "area": "福田",
      "subArea": "车公庙",
      "rating": "4.7",
      "price": "85 元",
      "cuisine": "牛肉火锅",
      "recs": [
        "鲜牛肉",
        "手打牛肉丸",
        "牛杂锅"
      ],
      "source": "小红书",
      "delivery": "美团",
      "tags": [
        "潮汕正宗"
      ],
      "source_link": "https://www.xiaohongshu.com/search_result?keyword=陈记顺和牛肉火锅 (车公庙店) 深圳"
    },
    {
      "id": "208",
      "name": "蘩楼 (翻身店)",
      "lat": 22.5645,
      "lng": 113.8975,
      "area": "宝安",
      "subArea": "翻身",
      "rating": "4.8",
      "price": "85 元",
      "cuisine": "粤菜",
      "recs": [
        "虾饺",
        "红米肠",
        "蒸排骨"
      ],
      "source": "小红书",
      "delivery": "美团/饿了么",
      "tags": [
        "广式早茶",
        "本地老店"
      ],
      "source_link": "https://www.xiaohongshu.com/search_result?keyword=蘩楼 (翻身店) 深圳"
    },
    {
      "id": "209",
      "name": "杏棠林 (翻身店)",
      "lat": 22.5635,
      "lng": 113.8965,
      "area": "宝安",
      "subArea": "翻身",
      "rating": "4.7",
      "price": "75 元",
      "cuisine": "粤菜",
      "recs": [
        "乳鸽",
        "叉烧",
        "煲仔饭"
      ],
      "source": "小红书",
      "delivery": "美团/饿了么",
      "tags": [
        "本地老店"
      ],
      "source_link": "https://www.xiaohongshu.com/search_result?keyword=杏棠林 (翻身店) 深圳"
    },
    {
      "id": "210",
      "name": "利宝阁 (后海店)",
      "lat": 22.5175,
      "lng": 113.9355,
      "area": "南山",
      "subArea": "后海",
      "rating": "4.8",
      "price": "200 元",
      "cuisine": "粤菜",
      "recs": [
        "乳鸽",
        "虾饺",
        "流沙包"
      ],
      "source": "小红书",
      "delivery": "美团",
      "tags": [
        "高端粤菜",
        "高分宝藏"
      ],
      "source_link": "https://www.xiaohongshu.com/search_result?keyword=利宝阁 (后海店) 深圳"
    },
    {
      "id": "211",
      "name": "农耕记湖南土菜 (科兴店)",
      "lat": 22.5435,
      "lng": 113.9455,
      "area": "南山",
      "subArea": "科技园",
      "rating": "4.6",
      "price": "55 元",
      "cuisine": "湘菜",
      "recs": [
        "衡东脆肚",
        "土猪肉汤",
        "香干炒肉"
      ],
      "source": "小红书",
      "delivery": "美团/饿了么",
      "tags": [
        "湘菜正宗"
      ],
      "source_link": "https://www.xiaohongshu.com/search_result?keyword=农耕记湖南土菜 (科兴店) 深圳"
    },
    {
      "id": "212",
      "name": "西贝莜面村 (万象天地店)",
      "lat": 22.5425,
      "lng": 113.9525,
      "area": "南山",
      "subArea": "科技园",
      "rating": "4.6",
      "price": "70 元",
      "cuisine": "西北菜",
      "recs": [
        "莜面",
        "羊肉串",
        "牛大骨"
      ],
      "source": "小红书",
      "delivery": "美团/饿了么",
      "tags": [
        "西北菜"
      ],
      "source_link": "https://www.xiaohongshu.com/search_result?keyword=西贝莜面村 (万象天地店) 深圳"
    },
    {
      "id": "213",
      "name": "绿茶餐厅 (海岸城店)",
      "lat": 22.5175,
      "lng": 113.9355,
      "area": "南山",
      "subArea": "海岸城",
      "rating": "4.5",
      "price": "60 元",
      "cuisine": "江浙菜",
      "recs": [
        "面包诱惑",
        "绿茶烤鸡",
        "石锅沸腾饭"
      ],
      "source": "小红书",
      "delivery": "美团/饿了么",
      "tags": [
        "江浙菜"
      ],
      "source_link": "https://www.xiaohongshu.com/search_result?keyword=绿茶餐厅 (海岸城店) 深圳"
    },
    {
      "id": "214",
      "name": "外婆家 (福田 COCO Park 店)",
      "lat": 22.5335,
      "lng": 114.0535,
      "area": "福田",
      "subArea": "CBD",
      "rating": "4.5",
      "price": "55 元",
      "cuisine": "江浙菜",
      "recs": [
        "茶香鸡",
        "麻婆豆腐",
        "外婆石锅蛙"
      ],
      "source": "小红书",
      "delivery": "美团/饿了么",
      "tags": [
        "江浙菜"
      ],
      "source_link": "https://www.xiaohongshu.com/search_result?keyword=外婆家 (福田 COCO Park 店) 深圳"
    },
    {
      "id": "215",
      "name": "翠园 (万象城店)",
      "lat": 22.5425,
      "lng": 114.1035,
      "area": "福田",
      "subArea": "CBD",
      "rating": "4.8",
      "price": "180 元",
      "cuisine": "粤菜",
      "recs": [
        "冰镇咕噜肉",
        "乳鸽",
        "虾饺"
      ],
      "source": "小红书",
      "delivery": "美团",
      "tags": [
        "高端粤菜",
        "高分宝藏"
      ],
      "source_link": "https://www.xiaohongshu.com/search_result?keyword=翠园 (万象城店) 深圳"
    },
    {
      "id": "216",
      "name": "莆田餐厅 (福田店)",
      "lat": 22.5335,
      "lng": 114.0735,
      "area": "福田",
      "subArea": "CBD",
      "rating": "4.7",
      "price": "110 元",
      "cuisine": "闽菜",
      "recs": [
        "百秒黄花鱼",
        "莆田卤面",
        "荔枝肉"
      ],
      "source": "小红书",
      "delivery": "美团",
      "tags": [
        "闽菜",
        "高分宝藏"
      ],
      "source_link": "https://www.xiaohongshu.com/search_result?keyword=莆田餐厅 (福田店) 深圳"
    },
    {
      "id": "217",
      "name": "1949 全鸭季 (福田店)",
      "lat": 22.5335,
      "lng": 114.0635,
      "area": "福田",
      "subArea": "CBD",
      "rating": "4.7",
      "price": "150 元",
      "cuisine": "京菜",
      "recs": [
        "烤鸭",
        "芥末鸭掌",
        "鸭汤"
      ],
      "source": "小红书",
      "delivery": "美团",
      "tags": [
        "京菜",
        "高分宝藏"
      ],
      "source_link": "https://www.xiaohongshu.com/search_result?keyword=1949 全鸭季 (福田店) 深圳"
    },
    {
      "id": "218",
      "name": "客语客家菜 (海岸城店)",
      "lat": 22.5175,
      "lng": 113.9355,
      "area": "南山",
      "subArea": "海岸城",
      "rating": "4.6",
      "price": "65 元",
      "cuisine": "客家菜",
      "recs": [
        "古法手撕盐焗鸡",
        "客家豆腐",
        "猪肚鸡"
      ],
      "source": "小红书",
      "delivery": "美团/饿了么",
      "tags": [
        "客家菜"
      ],
      "source_link": "https://www.xiaohongshu.com/search_result?keyword=客语客家菜 (海岸城店) 深圳"
    },
    {
      "id": "219",
      "name": "桂语江南 (南山店)",
      "lat": 22.5175,
      "lng": 113.9355,
      "area": "南山",
      "subArea": "海岸城",
      "rating": "4.7",
      "price": "120 元",
      "cuisine": "江浙菜",
      "recs": [
        "松鼠桂鱼",
        "龙井虾仁",
        "熟醉蟹"
      ],
      "source": "小红书",
      "delivery": "美团",
      "tags": [
        "江浙菜",
        "高分宝藏"
      ],
      "source_link": "https://www.xiaohongshu.com/search_result?keyword=桂语江南 (南山店) 深圳"
    },
    {
      "id": "220",
      "name": "陶德砂锅 (宝安中心店)",
      "lat": 22.5545,
      "lng": 113.8875,
      "area": "宝安",
      "subArea": "宝安中心",
      "rating": "4.6",
      "price": "50 元",
      "cuisine": "川菜",
      "recs": [
        "青豆肥牛",
        "砂锅土豆片",
        "蒜蓉虾"
      ],
      "source": "小红书",
      "delivery": "美团/饿了么",
      "tags": [
        "川菜"
      ],
      "source_link": "https://www.xiaohongshu.com/search_result?keyword=陶德砂锅 (宝安中心店) 深圳"
    },
    {
      "id": "221",
      "name": "姚姚酸菜鱼 (南山店)",
      "lat": 22.5335,
      "lng": 113.9225,
      "area": "南山",
      "subArea": "南头",
      "rating": "4.6",
      "price": "70 元",
      "cuisine": "川菜",
      "recs": [
        "酸菜鱼",
        "小酥肉",
        "红糖糍粑"
      ],
      "source": "小红书",
      "delivery": "美团/饿了么",
      "tags": [
        "川菜"
      ],
      "source_link": "https://www.xiaohongshu.com/search_result?keyword=姚姚酸菜鱼 (南山店) 深圳"
    },
    {
      "id": "222",
      "name": "井格重庆火锅 (前海店)",
      "lat": 22.5335,
      "lng": 113.9425,
      "area": "南山",
      "subArea": "前海",
      "rating": "4.5",
      "price": "100 元",
      "cuisine": "火锅",
      "recs": [
        "毛肚",
        "鸭肠",
        "黄喉"
      ],
      "source": "大众点评",
      "delivery": "美团",
      "tags": [
        "重庆火锅"
      ],
      "source_link": "https://www.dianping.com/shop/search?keyword=井格重庆火锅 (前海店) 深圳"
    },
    {
      "id": "223",
      "name": "怂重庆火锅厂 (南山店)",
      "lat": 22.5335,
      "lng": 113.9425,
      "area": "南山",
      "subArea": "前海",
      "rating": "4.7",
      "price": "110 元",
      "cuisine": "火锅",
      "recs": [
        "鲜切黄牛肉",
        "鸭血豆腐",
        "奶茶"
      ],
      "source": "小红书",
      "delivery": "美团",
      "tags": [
        "网红火锅",
        "高分宝藏"
      ],
      "source_link": "https://www.xiaohongshu.com/search_result?keyword=怂重庆火锅厂 (南山店) 深圳"
    },
    {
      "id": "224",
      "name": "珮姐老火锅 (南山店)",
      "lat": 22.5435,
      "lng": 113.9535,
      "area": "南山",
      "subArea": "南头",
      "rating": "4.6",
      "price": "105 元",
      "cuisine": "火锅",
      "recs": [
        "贡菜丸子",
        "屠场毛肚",
        "花菜"
      ],
      "source": "小红书",
      "delivery": "美团",
      "tags": [
        "重庆火锅"
      ],
      "source_link": "https://www.xiaohongshu.com/search_result?keyword=珮姐老火锅 (南山店) 深圳"
    },
    {
      "id": "225",
      "name": "周师兄重庆火锅 (南山店)",
      "lat": 22.5435,
      "lng": 113.9535,
      "area": "南山",
      "subArea": "南头",
      "rating": "4.5",
      "price": "95 元",
      "cuisine": "火锅",
      "recs": [
        "大刀腰片",
        "现炸酥肉",
        "鹅肠"
      ],
      "source": "大众点评",
      "delivery": "美团",
      "tags": [
        "重庆火锅"
      ],
      "source_link": "https://www.dianping.com/shop/search?keyword=周师兄重庆火锅 (南山店) 深圳"
    },
    {
      "id": "226",
      "name": "金稻园砂锅粥 (华强北店)",
      "lat": 22.5555,
      "lng": 114.0935,
      "area": "福田",
      "subArea": "华强北",
      "rating": "4.6",
      "price": "80 元",
      "cuisine": "潮汕菜",
      "recs": [
        "虾蟹粥",
        "炒粿条",
        "炒花甲"
      ],
      "source": "大众点评",
      "delivery": "美团",
      "tags": [
        "潮汕菜",
        "夜宵"
      ],
      "source_link": "https://www.dianping.com/shop/search?keyword=金稻园砂锅粥 (华强北店) 深圳"
    },
    {
      "id": "227",
      "name": "潮德阿水 (华强北店)",
      "lat": 22.5555,
      "lng": 114.0835,
      "area": "福田",
      "subArea": "华强北",
      "rating": "4.5",
      "price": "70 元",
      "cuisine": "潮汕菜",
      "recs": [
        "牛肉丸",
        "干炒牛河",
        "蚝烙"
      ],
      "source": "小红书",
      "delivery": "美团/饿了么",
      "tags": [
        "潮汕菜"
      ],
      "source_link": "https://www.xiaohongshu.com/search_result?keyword=潮德阿水 (华强北店) 深圳"
    },
    {
      "id": "228",
      "name": "乐凯撒比萨 (华强北店)",
      "lat": 22.5555,
      "lng": 114.0835,
      "area": "福田",
      "subArea": "华强北",
      "rating": "4.6",
      "price": "65 元",
      "cuisine": "披萨",
      "recs": [
        "榴莲披萨",
        "鸡翅",
        "沙拉"
      ],
      "source": "小红书",
      "delivery": "美团/饿了么",
      "tags": [
        "披萨"
      ],
      "source_link": "https://www.xiaohongshu.com/search_result?keyword=乐凯撒比萨 (华强北店) 深圳"
    },
    {
      "id": "229",
      "name": "一绪に寿喜烧 (宝安中心店)",
      "lat": 22.5545,
      "lng": 113.8875,
      "area": "宝安",
      "subArea": "宝安中心",
      "rating": "4.6",
      "price": "130 元",
      "cuisine": "日料",
      "recs": [
        "和牛寿喜烧",
        "海鲜拼盘",
        "沙拉吧"
      ],
      "source": "小红书",
      "delivery": "美团",
      "tags": [
        "日料"
      ],
      "source_link": "https://www.xiaohongshu.com/search_result?keyword=一绪に寿喜烧 (宝安中心店) 深圳"
    },
    {
      "id": "230",
      "name": "玛珍塔泰式料理 (宝安店)",
      "lat": 22.5555,
      "lng": 113.8885,
      "area": "宝安",
      "subArea": "宝安中心",
      "rating": "4.7",
      "price": "90 元",
      "cuisine": "东南亚菜",
      "recs": [
        "冬阴功汤",
        "咖喱蟹",
        "芒果糯米饭"
      ],
      "source": "小红书",
      "delivery": "美团",
      "tags": [
        "东南亚菜",
        "高分宝藏"
      ],
      "source_link": "https://www.xiaohongshu.com/search_result?keyword=玛珍塔泰式料理 (宝安店) 深圳"
    }
  ],
  "update_log": [
    {
      "date": "2026-03-31",
      "action": "新增",
      "count": 6,
      "shops": [
        "JPG canteen(深圳科兴店)",
        "蔬轻蔬重",
        "胡麻牛脸颊肉拌饭",
        "丝丝有味鸭血粉丝汤",
        "广西卷筒粉",
        "老江家东北菜"
      ]
    },
    {
      "date": "2026-03-31",
      "action": "新增",
      "count": 2,
      "shops": [
        "JPG canteen(深圳科兴店)",
        "蔬轻蔬重"
      ]
    }
  ]
}