{
  "lastUpdate": "2026-03-31T11:32:00+08:00",
  "shops": [
    {
      "id": "1",
      "name": "木屋烧烤",
      "lat": 22.542876,
      "lng": 113.944825,
      "area": "南山",
      "subArea": "科技园",
      "rating": "4.8",
      "price": "60 元",
      "cuisine": "烧烤",
      "recs": [
        "烤羊肉串",
        "烤茄子"
      ],
      "source": "小红书",
      "address": "南山区科技园科发路5-1号一层",
      "is_brand": false
    },
    {
      "id": "2",
      "name": "太二酸菜鱼",
      "lat": 22.534857,
      "lng": 113.919952,
      "area": "南山",
      "subArea": "科技园",
      "rating": "4.7",
      "price": "75 元",
      "cuisine": "川菜",
      "recs": [
        "酸菜鱼",
        "红糖糍粑"
      ],
      "source": "小红书",
      "address": "南新路3030号南山欢乐颂购物中心第四层L413号商铺",
      "is_brand": true
    },
    {
      "id": "3",
      "name": "探鱼",
      "lat": 22.518104,
      "lng": 113.93652,
      "area": "南山",
      "subArea": "海岸城",
      "rating": "4.5",
      "price": "70 元",
      "cuisine": "烤鱼",
      "recs": [
        "清江鱼",
        "烤牛蛙"
      ],
      "source": "小红书",
      "address": "海岸城西座二楼217号",
      "is_brand": false
    },
    {
      "id": "4",
      "name": "点都德",
      "lat": 22.53949,
      "lng": 114.099371,
      "area": "福田",
      "subArea": "CBD",
      "rating": "4.6",
      "price": "80 元",
      "cuisine": "粤菜",
      "recs": [
        "虾饺",
        "红米肠"
      ],
      "source": "小红书",
      "address": "深南中路1095号iN城市广场2楼点都德",
      "is_brand": false
    },
    {
      "id": "5",
      "name": "陶陶居",
      "lat": 22.536197,
      "lng": 114.020505,
      "area": "福田",
      "subArea": "车公庙",
      "rating": "4.6",
      "price": "90 元",
      "cuisine": "粤菜",
      "recs": [
        "菠萝包",
        "大虾饺"
      ],
      "source": "小红书",
      "address": "深南大道7888号东海朗廷酒店2层",
      "is_brand": false
    },
    {
      "id": "6",
      "name": "海底捞",
      "lat": 22.53113,
      "lng": 113.968662,
      "area": "南山",
      "subArea": "白石洲",
      "rating": "4.7",
      "price": "120 元",
      "cuisine": "火锅",
      "recs": [
        "番茄锅",
        "捞面"
      ],
      "source": "大众点评",
      "address": "沙河街道白石洲东社区白石路168号南山京基百纳广场L3-01商铺",
      "is_brand": true
    },
    {
      "id": "14",
      "name": "喜茶",
      "lat": 22.537315,
      "lng": 113.974724,
      "area": "南山",
      "subArea": "世界之窗",
      "rating": "4.6",
      "price": "25 元",
      "cuisine": "奶茶",
      "recs": [
        "多肉葡萄",
        "芝士茶"
      ],
      "source": "小红书",
      "address": "沙河街道华夏街社区深南大道9028号益田假日广场外独栋",
      "is_brand": true
    },
    {
      "id": "19",
      "name": "陈记顺和",
      "lat": 22.6253,
      "lng": 114.076671,
      "area": "南山",
      "subArea": "白石洲",
      "rating": "4.5",
      "price": "40 元",
      "cuisine": "牛肉火锅",
      "recs": [
        "鲜牛肉",
        "手打牛肉丸"
      ],
      "source": "小红书",
      "address": "坂田街道河背村侨联西十卷三号1楼",
      "is_brand": false
    },
    {
      "id": "20",
      "name": "八合里",
      "lat": 22.542914,
      "lng": 114.091811,
      "area": "福田",
      "subArea": "老街",
      "rating": "4.6",
      "price": "85 元",
      "cuisine": "牛肉火锅",
      "recs": [
        "吊龙",
        "匙柄"
      ],
      "source": "小红书",
      "address": "富强社区华强北街道振中路86号爱华科研楼6栋1层1号、2号",
      "is_brand": false
    },
    {
      "id": "21",
      "name": "哥老官",
      "lat": 22.531902,
      "lng": 113.931019,
      "area": "南山",
      "subArea": "科技园",
      "rating": "4.5",
      "price": "100 元",
      "cuisine": "火锅",
      "recs": [
        "美蛙鱼头",
        "红糖糍粑"
      ],
      "source": "小红书",
      "address": "桃园路1号西海明珠大厦F座二楼",
      "is_brand": false
    },
    {
      "id": "22",
      "name": "小龙坎",
      "lat": 22.531892,
      "lng": 114.025482,
      "area": "南山",
      "subArea": "车公庙",
      "rating": "4.4",
      "price": "90 元",
      "cuisine": "火锅",
      "recs": [
        "毛肚",
        "鸭肠"
      ],
      "source": "大众点评",
      "address": "泰然六路34号(深圳金融电子结算中心对面)",
      "is_brand": false
    },
    {
      "id": "23",
      "name": "大龙燚",
      "lat": 22.527233,
      "lng": 113.922711,
      "area": "南山",
      "subArea": "世界之窗",
      "rating": "4.4",
      "price": "95 元",
      "cuisine": "火锅",
      "recs": [
        "黄喉",
        "鹅肠"
      ],
      "source": "大众点评",
      "address": "学府路113-21号(南山地铁站G口步行360米)",
      "is_brand": false
    },
    {
      "id": "24",
      "name": "蜀大侠",
      "lat": 22.542825,
      "lng": 114.069175,
      "area": "福田",
      "subArea": "CBD",
      "rating": "4.3",
      "price": "88 元",
      "cuisine": "火锅",
      "recs": [
        "太极双滑",
        "花千骨"
      ],
      "source": "小红书",
      "address": "橄榄鹏苑B栋南门旁(岗厦北地铁站18号口步行350米)",
      "is_brand": false
    },
    {
      "id": "25",
      "name": "左庭右院",
      "lat": 22.628998,
      "lng": 113.863887,
      "area": "宝安",
      "subArea": "宝安中心",
      "rating": "4.5",
      "price": "95 元",
      "cuisine": "牛肉火锅",
      "recs": [
        "鲜牛肉",
        "牛骨汤"
      ],
      "source": "小红书",
      "address": "宝安中心医院富恒社区健康服务中心西北门旁",
      "is_brand": false
    },
    {
      "id": "26",
      "name": "蔡澜港式点心",
      "lat": 22.542404,
      "lng": 113.957118,
      "area": "南山",
      "subArea": "世界之窗",
      "rating": "4.6",
      "price": "70 元",
      "cuisine": "粤菜",
      "recs": [
        "酥皮山楂叉烧包",
        "赛螃蟹凤眼饺"
      ],
      "source": "小红书",
      "address": "粤海街道大冲社区科润路16号华润城华润置地大厦NLG07",
      "is_brand": true
    },
    {
      "id": "31",
      "name": "白夜有米",
      "lat": 22.52472,
      "lng": 113.93681,
      "area": "南山",
      "subArea": "南头",
      "rating": "4.6",
      "price": "45 元",
      "cuisine": "创意菜",
      "recs": [
        "油封鸭牛肝菌乌冬"
      ],
      "source": "小红书",
      "address": "高新南十道深圳市软件产业基地2A207(citigo酒店2楼)",
      "is_brand": false
    },
    {
      "id": "32",
      "name": "汤胖文",
      "lat": 22.528471,
      "lng": 113.920723,
      "area": "南山",
      "subArea": "南头",
      "rating": "4.5",
      "price": "35 元",
      "cuisine": "简餐",
      "recs": [
        "番茄牛腩饭"
      ],
      "source": "小红书",
      "address": "国兴大厦东门旁",
      "is_brand": false
    },
    {
      "id": "33",
      "name": "呐咪傣园",
      "lat": 22.548106,
      "lng": 113.94671,
      "area": "南山",
      "subArea": "科技园",
      "rating": "4.6",
      "price": "50 元",
      "cuisine": "傣味",
      "recs": [
        "手抓饭",
        "菠萝饭"
      ],
      "source": "小红书",
      "address": "文华路与科伟路交叉口东南40米",
      "is_brand": false
    },
    {
      "id": "34",
      "name": "国记正宗海南粉",
      "lat": 22.532506,
      "lng": 113.914552,
      "area": "南山",
      "subArea": "科技园",
      "rating": "4.4",
      "price": "25 元",
      "cuisine": "海南菜",
      "recs": [
        "猪肉粉",
        "海南粉"
      ],
      "source": "小红书",
      "address": "南头街道前海花园1栋桃园路242号",
      "is_brand": false
    },
    {
      "id": "35",
      "name": "陈记海蛎饼",
      "lat": 22.533886,
      "lng": 113.921427,
      "area": "南山",
      "subArea": "南头",
      "rating": "4.5",
      "price": "20 元",
      "cuisine": "福建菜",
      "recs": [
        "海蛎饼",
        "芋泥饼"
      ],
      "source": "小红书",
      "address": "常兴路152号(南头古城地铁站E4口步行420米)",
      "is_brand": false
    },
    {
      "id": "36",
      "name": "粤菜馆",
      "lat": 22.541998,
      "lng": 113.92708,
      "area": "南山",
      "subArea": "南头",
      "rating": "4.4",
      "price": "55 元",
      "cuisine": "粤菜",
      "recs": [
        "烧鹅",
        "叉烧饭"
      ],
      "source": "小红书",
      "address": "南头街道艺园路名家富居商业综合楼2楼",
      "is_brand": false
    },
    {
      "id": "37",
      "name": "螺蛳粉店",
      "lat": 22.5436,
      "lng": 113.948628,
      "area": "南山",
      "subArea": "科技园",
      "rating": "4.3",
      "price": "28 元",
      "cuisine": "广西菜",
      "recs": [
        "螺蛳粉",
        "炸蛋"
      ],
      "source": "小红书",
      "address": "粤海街道科技园社区科发路222号康泰集团大厦负一层s5柳螺记螺蛳粉高新园店",
      "is_brand": false
    },
    {
      "id": "38",
      "name": "麻辣烫",
      "lat": 22.543318,
      "lng": 113.943431,
      "area": "南山",
      "subArea": "科技园",
      "rating": "4.2",
      "price": "30 元",
      "cuisine": "川菜",
      "recs": [
        "麻辣烫",
        "冒菜"
      ],
      "source": "小红书",
      "address": "粤海街道科技园工业区23栋1层03号铺",
      "is_brand": false
    },
    {
      "id": "39",
      "name": "猪脚饭",
      "lat": 22.545786,
      "lng": 113.946205,
      "area": "南山",
      "subArea": "科技园",
      "rating": "4.4",
      "price": "22 元",
      "cuisine": "粤菜",
      "recs": [
        "隆江猪脚饭",
        "卤蛋"
      ],
      "source": "小红书",
      "address": "粤海街道科技园社区科苑路8号讯美科技广场3号楼102",
      "is_brand": false
    },
    {
      "id": "40",
      "name": "沙县小吃",
      "lat": 22.53936,
      "lng": 113.921229,
      "area": "南山",
      "subArea": "南头",
      "rating": "4.1",
      "price": "18 元",
      "cuisine": "福建菜",
      "recs": [
        "拌面",
        "蒸饺",
        "炖汤"
      ],
      "source": "小红书",
      "address": "南头街道红花园社区南新路3058号钰龙园D栋20号铺",
      "is_brand": false
    },
    {
      "id": "41",
      "name": "黄焖鸡米饭",
      "lat": 22.543017,
      "lng": 113.942568,
      "area": "南山",
      "subArea": "科技园",
      "rating": "4.3",
      "price": "25 元",
      "cuisine": "鲁菜",
      "recs": [
        "黄焖鸡",
        "金针菇"
      ],
      "source": "小红书",
      "address": "粤海街道科技园社区科发路11号科技园33栋105",
      "is_brand": false
    },
    {
      "id": "42",
      "name": "牛肉面",
      "lat": 22.543028,
      "lng": 113.923261,
      "area": "南山",
      "subArea": "南头",
      "rating": "4.5",
      "price": "28 元",
      "cuisine": "西北菜",
      "recs": [
        "兰州拉面",
        "牛肉面"
      ],
      "source": "小红书",
      "address": "南头街道南山大道3035号兰丽花园4栋商铺",
      "is_brand": false
    },
    {
      "id": "43",
      "name": "饺子馆",
      "lat": 22.53523,
      "lng": 113.966857,
      "area": "南山",
      "subArea": "白石洲",
      "rating": "4.4",
      "price": "24 元",
      "cuisine": "面食",
      "recs": [
        "猪肉白菜饺",
        "韭菜鸡蛋饺"
      ],
      "source": "小红书",
      "address": "白石洲石洲中路西一坊30号",
      "is_brand": false
    },
    {
      "id": "44",
      "name": "炸鸡汉堡",
      "lat": 22.545944,
      "lng": 113.923967,
      "area": "南山",
      "subArea": "南头",
      "rating": "4.2",
      "price": "32 元",
      "cuisine": "快餐",
      "recs": [
        "炸鸡",
        "芝士汉堡"
      ],
      "source": "小红书",
      "address": "南头街道玉泉路111号(中山公园地铁站A口步行80米)",
      "is_brand": false
    },
    {
      "id": "45",
      "name": "四季椰林",
      "lat": 22.54248,
      "lng": 113.954464,
      "area": "南山",
      "subArea": "科技园",
      "rating": "4.7",
      "price": "120 元",
      "cuisine": "海南菜",
      "recs": [
        "椰子鸡",
        "竹荪",
        "珍珠马蹄"
      ],
      "source": "小红书",
      "address": "粤海街道深南大道华润置地大厦D座L3层NL301商铺",
      "is_brand": false
    },
    {
      "id": "46",
      "name": "润园四季",
      "lat": 22.549239,
      "lng": 113.944015,
      "area": "南山",
      "subArea": "科技园",
      "rating": "4.6",
      "price": "100 元",
      "cuisine": "海南菜",
      "recs": [
        "椰子鸡",
        "腊味煲仔饭"
      ],
      "source": "小红书",
      "address": "科技园社区科苑路15号科兴科学园B栋G-19",
      "is_brand": false
    },
    {
      "id": "47",
      "name": "大榕树",
      "lat": 22.517126,
      "lng": 113.935111,
      "area": "南山",
      "subArea": "科技园",
      "rating": "4.5",
      "price": "65 元",
      "cuisine": "桂林菜",
      "recs": [
        "啤酒鱼",
        "田螺酿"
      ],
      "source": "小红书",
      "address": "粤海街道海珠社区文心五路33号海岸城广场负一楼063-10",
      "is_brand": false
    },
    {
      "id": "48",
      "name": "费大厨辣椒炒肉",
      "lat": 22.528262,
      "lng": 113.952006,
      "area": "南山",
      "subArea": "科技园",
      "rating": "4.6",
      "price": "55 元",
      "cuisine": "湘菜",
      "recs": [
        "辣椒炒肉",
        "皮蛋青椒擂茄子"
      ],
      "source": "小红书",
      "address": "金地威新中心C座L1",
      "is_brand": false
    },
    {
      "id": "49",
      "name": "农耕记",
      "lat": 22.54273,
      "lng": 113.946086,
      "area": "南山",
      "subArea": "科技园",
      "rating": "4.5",
      "price": "60 元",
      "cuisine": "湘菜",
      "recs": [
        "衡东脆肚",
        "土猪肉汤"
      ],
      "source": "小红书",
      "address": "粤海街道科苑北路与科发路交汇处中中电长城大厦乐洲L3-02号商铺",
      "is_brand": false
    },
    {
      "id": "50",
      "name": "八合里牛肉火锅",
      "lat": 22.527677,
      "lng": 114.027105,
      "area": "福田",
      "subArea": "车公庙",
      "rating": "4.7",
      "price": "90 元",
      "cuisine": "牛肉火锅",
      "recs": [
        "吊龙",
        "匙柄",
        "牛肉丸"
      ],
      "source": "大众点评",
      "address": "沙头街道下沙社区滨河路9289号下沙村京基滨河时代广场L401",
      "is_brand": false
    },
    {
      "id": "51",
      "name": "陈鹏鹏潮汕菜",
      "lat": 22.538432,
      "lng": 114.02561,
      "area": "福田",
      "subArea": "车公庙",
      "rating": "4.6",
      "price": "80 元",
      "cuisine": "潮汕菜",
      "recs": [
        "卤鹅",
        "蚝仔烙"
      ],
      "source": "小红书",
      "address": "香林路东海花园二期福禄居西区4号1层G13AG15",
      "is_brand": false
    },
    {
      "id": "52",
      "name": "莆田餐厅",
      "lat": 22.542825,
      "lng": 114.069175,
      "area": "福田",
      "subArea": "CBD",
      "rating": "4.7",
      "price": "110 元",
      "cuisine": "闽菜",
      "recs": [
        "百秒黄花鱼",
        "莆田卤面"
      ],
      "source": "小红书",
      "address": "橄榄鹏苑B栋南门旁(岗厦北地铁站18号口步行350米)",
      "is_brand": false
    },
    {
      "id": "53",
      "name": "1949全鸭季",
      "lat": 22.525517,
      "lng": 113.989367,
      "area": "福田",
      "subArea": "CBD",
      "rating": "4.6",
      "price": "150 元",
      "cuisine": "京菜",
      "recs": [
        "烤鸭",
        "芥末鸭掌"
      ],
      "source": "小红书",
      "address": "白石路东8号OPLAZA欢乐海岸购物中心",
      "is_brand": false
    },
    {
      "id": "54",
      "name": "大蔬无界",
      "lat": 22.542825,
      "lng": 114.069175,
      "area": "福田",
      "subArea": "CBD",
      "rating": "4.5",
      "price": "130 元",
      "cuisine": "素食",
      "recs": [
        "黑松露炒饭",
        "藜麦沙拉"
      ],
      "source": "小红书",
      "address": "橄榄鹏苑B栋南门旁(岗厦北地铁站18号口步行350米)",
      "is_brand": false
    },
    {
      "id": "55",
      "name": "利宝阁",
      "lat": 22.517503,
      "lng": 113.933352,
      "area": "南山",
      "subArea": "后海",
      "rating": "4.8",
      "price": "200 元",
      "cuisine": "粤菜",
      "recs": [
        "乳鸽",
        "虾饺",
        "流沙包"
      ],
      "source": "大众点评",
      "address": "中洲控股中心A座一楼美食花园A11",
      "is_brand": false
    },
    {
      "id": "56",
      "name": "翠园",
      "lat": 22.487764,
      "lng": 113.928505,
      "area": "南山",
      "subArea": "后海",
      "rating": "4.7",
      "price": "180 元",
      "cuisine": "粤菜",
      "recs": [
        "冰镇咕噜肉",
        "乳鸽"
      ],
      "source": "小红书",
      "address": "翠苑小区北门旁(东角头地铁站D口步行260米)",
      "is_brand": false
    },
    {
      "id": "57",
      "name": "炳胜品味",
      "lat": 22.516322,
      "lng": 113.947192,
      "area": "南山",
      "subArea": "后海",
      "rating": "4.6",
      "price": "140 元",
      "cuisine": "粤菜",
      "recs": [
        "脆皮叉烧",
        "菠萝包"
      ],
      "source": "小红书",
      "address": "海德三道深圳湾万象城A区4层L418号店铺",
      "is_brand": false
    },
    {
      "id": "58",
      "name": "客语",
      "lat": 22.517289,
      "lng": 113.93548,
      "area": "南山",
      "subArea": "海岸城",
      "rating": "4.5",
      "price": "70 元",
      "cuisine": "客家菜",
      "recs": [
        "古法手撕盐焗鸡",
        "客家豆腐"
      ],
      "source": "小红书",
      "address": "粤海街道海珠社区文心五路33号海岸城广场516",
      "is_brand": false
    },
    {
      "id": "59",
      "name": "桂语江南",
      "lat": 22.517756,
      "lng": 113.935299,
      "area": "南山",
      "subArea": "海岸城",
      "rating": "4.6",
      "price": "120 元",
      "cuisine": "江浙菜",
      "recs": [
        "松鼠桂鱼",
        "龙井虾仁"
      ],
      "source": "小红书",
      "address": "文心五路33号海岸城购物中心2层第245号",
      "is_brand": false
    },
    {
      "id": "60",
      "name": "杏棠林",
      "lat": 22.563541,
      "lng": 113.896104,
      "area": "宝安",
      "subArea": "翻身",
      "rating": "4.6",
      "price": "75 元",
      "cuisine": "粤菜",
      "recs": [
        "乳鸽",
        "叉烧"
      ],
      "source": "小红书",
      "address": "自由路2号(翻身地铁站C口步行460米)",
      "is_brand": false
    },
    {
      "id": "61",
      "name": "蘩楼",
      "lat": 22.554382,
      "lng": 113.896775,
      "area": "宝安",
      "subArea": "翻身",
      "rating": "4.7",
      "price": "85 元",
      "cuisine": "粤菜",
      "recs": [
        "虾饺",
        "红米肠",
        "蒸排骨"
      ],
      "source": "小红书",
      "address": "华创达中心商务大厦东南门旁",
      "is_brand": false
    },
    {
      "id": "62",
      "name": "陶德砂锅",
      "lat": 22.536423,
      "lng": 114.089469,
      "area": "宝安",
      "subArea": "宝安中心",
      "rating": "4.5",
      "price": "50 元",
      "cuisine": "川菜",
      "recs": [
        "青豆肥牛",
        "砂锅土豆片"
      ],
      "source": "小红书",
      "address": "南园街道华发南路2号上步中学5-7号铺",
      "is_brand": false
    },
    {
      "id": "63",
      "name": "玛珍塔",
      "lat": 22.628998,
      "lng": 113.863887,
      "area": "宝安",
      "subArea": "宝安中心",
      "rating": "4.6",
      "price": "90 元",
      "cuisine": "东南亚菜",
      "recs": [
        "冬阴功",
        "咖喱蟹"
      ],
      "source": "小红书",
      "address": "宝安中心医院富恒社区健康服务中心西北门旁",
      "is_brand": false
    },
    {
      "id": "64",
      "name": "一绪に",
      "lat": 22.554575,
      "lng": 113.887233,
      "area": "宝安",
      "subArea": "宝安中心",
      "rating": "4.5",
      "price": "130 元",
      "cuisine": "日料",
      "recs": [
        "和牛寿喜烧",
        "海鲜拼盘"
      ],
      "source": "小红书",
      "address": "宝安中心(地铁站)",
      "is_brand": false
    },
    {
      "id": "65",
      "name": "姚姚酸菜鱼",
      "lat": 22.551075,
      "lng": 113.947736,
      "area": "南山",
      "subArea": "南头",
      "rating": "4.5",
      "price": "70 元",
      "cuisine": "川菜",
      "recs": [
        "酸菜鱼",
        "小酥肉"
      ],
      "source": "小红书",
      "address": "南山区粤海街道科技园社区深南路科技工业园50号小区澳特创新中心L1-19号铺",
      "is_brand": false
    },
    {
      "id": "66",
      "name": "井格重庆火锅",
      "lat": 22.528506,
      "lng": 113.914424,
      "area": "南山",
      "subArea": "前海",
      "rating": "4.4",
      "price": "100 元",
      "cuisine": "火锅",
      "recs": [
        "毛肚",
        "鸭肠",
        "黄喉"
      ],
      "source": "大众点评",
      "address": "学府路234号新德家园一楼c5-1",
      "is_brand": false
    },
    {
      "id": "67",
      "name": "怂重庆火锅厂",
      "lat": 22.528506,
      "lng": 113.914424,
      "area": "南山",
      "subArea": "前海",
      "rating": "4.6",
      "price": "110 元",
      "cuisine": "火锅",
      "recs": [
        "鲜切黄牛肉",
        "鸭血"
      ],
      "source": "小红书",
      "address": "学府路234号新德家园一楼c5-1",
      "is_brand": false
    },
    {
      "id": "68",
      "name": "珮姐老火锅",
      "lat": 22.517564,
      "lng": 113.939519,
      "area": "南山",
      "subArea": "南头",
      "rating": "4.5",
      "price": "105 元",
      "cuisine": "火锅",
      "recs": [
        "贡菜丸子",
        "屠场毛肚"
      ],
      "source": "小红书",
      "address": "粤海街道海珠社区后海滨路3019凯宾斯基酒店裙楼2层珮姐老火锅",
      "is_brand": false
    },
    {
      "id": "69",
      "name": "周师兄重庆火锅",
      "lat": 29.473693,
      "lng": 106.511969,
      "area": "南山",
      "subArea": "南头",
      "rating": "4.4",
      "price": "95 元",
      "cuisine": "火锅",
      "recs": [
        "大刀腰片",
        "现炸酥肉"
      ],
      "source": "大众点评",
      "address": "融汇半岛江上公馆B区东南门西60米",
      "is_brand": false
    },
    {
      "id": "70",
      "name": "胜记",
      "lat": 22.545667,
      "lng": 114.104191,
      "area": "福田",
      "subArea": "百花",
      "rating": "4.6",
      "price": "130 元",
      "cuisine": "粤菜",
      "recs": [
        "鸽吞翅",
        "荔枝柴烧鸡"
      ],
      "source": "小红书",
      "address": "红岭中路1003号荔枝公园东侧门南60米",
      "is_brand": false
    },
    {
      "id": "71",
      "name": "金稻园砂锅粥",
      "lat": 22.537969,
      "lng": 114.091093,
      "area": "福田",
      "subArea": "华强北",
      "rating": "4.5",
      "price": "80 元",
      "cuisine": "潮汕菜",
      "recs": [
        "虾蟹粥",
        "炒粿条"
      ],
      "source": "大众点评",
      "address": "南园街道南园路159号(华强南地铁站B口步行490米)",
      "is_brand": false
    },
    {
      "id": "72",
      "name": "潮德阿水",
      "lat": 22.483295,
      "lng": 113.91581,
      "area": "福田",
      "subArea": "华强北",
      "rating": "4.4",
      "price": "70 元",
      "cuisine": "潮汕菜",
      "recs": [
        "牛肉丸",
        "干炒牛河"
      ],
      "source": "小红书",
      "address": "海上世界船前广场2栋3楼潮德阿水牛肉火锅",
      "is_brand": false
    },
    {
      "id": "75",
      "name": "粤海门小吃",
      "lat": 22.5245,
      "lng": 113.9525,
      "area": "南山",
      "subArea": "科技园",
      "rating": "4.3",
      "price": "25 元",
      "cuisine": "小吃",
      "recs": [
        "肠粉",
        "炒河粉"
      ],
      "source": "小红书",
      "is_brand": false
    },
    {
      "id": "77",
      "name": "大冲天地美食",
      "lat": 22.5455,
      "lng": 113.9515,
      "area": "南山",
      "subArea": "科技园",
      "rating": "4.4",
      "price": "40 元",
      "cuisine": "简餐",
      "recs": [
        "猪脚饭",
        "烧鸭饭"
      ],
      "source": "小红书",
      "is_brand": false
    },
    {
      "id": "79",
      "name": "高新园地铁站美食",
      "lat": 22.5435,
      "lng": 113.9535,
      "area": "南山",
      "subArea": "科技园",
      "rating": "4.2",
      "price": "35 元",
      "cuisine": "快餐",
      "recs": [
        "隆江猪脚饭",
        "卤肉饭"
      ],
      "source": "小红书",
      "is_brand": false
    },
    {
      "id": "81",
      "name": "保利剧院美食",
      "lat": 22.5165,
      "lng": 113.9365,
      "area": "南山",
      "subArea": "后海",
      "rating": "4.4",
      "price": "45 元",
      "cuisine": "简餐",
      "recs": [
        "意面",
        "沙拉"
      ],
      "source": "小红书",
      "is_brand": false
    },
    {
      "id": "82",
      "name": "深圳湾万象城美食",
      "lat": 22.5163,
      "lng": 113.9472,
      "area": "南山",
      "subArea": "后海",
      "rating": "4.6",
      "price": "80 元",
      "cuisine": "美食广场",
      "recs": [
        "精品简餐",
        "甜品"
      ],
      "source": "小红书",
      "is_brand": false
    },
    {
      "id": "83",
      "name": "南头古城美食",
      "lat": 22.5425,
      "lng": 113.9215,
      "area": "南山",
      "subArea": "南头",
      "rating": "4.5",
      "price": "35 元",
      "cuisine": "小吃",
      "recs": [
        "古城小吃",
        "特色菜"
      ],
      "source": "小红书",
      "is_brand": false
    },
    {
      "id": "86",
      "name": "购物公园美食",
      "lat": 22.5335,
      "lng": 114.0535,
      "area": "福田",
      "subArea": "CBD",
      "rating": "4.5",
      "price": "50 元",
      "cuisine": "美食广场",
      "recs": [
        "精品简餐",
        "特色菜"
      ],
      "source": "小红书",
      "is_brand": false
    },
    {
      "id": "87",
      "name": "会展中心美食",
      "lat": 22.5335,
      "lng": 114.0635,
      "area": "福田",
      "subArea": "CBD",
      "rating": "4.4",
      "price": "45 元",
      "cuisine": "简餐",
      "recs": [
        "商务套餐",
        "简餐"
      ],
      "source": "小红书",
      "is_brand": false
    },
    {
      "id": "88",
      "name": "岗厦北美食",
      "lat": 22.5395,
      "lng": 114.0735,
      "area": "福田",
      "subArea": "岗厦",
      "rating": "4.3",
      "price": "35 元",
      "cuisine": "快餐",
      "recs": [
        "猪脚饭",
        "烧腊饭"
      ],
      "source": "小红书",
      "is_brand": false
    },
    {
      "id": "90",
      "name": "茂业天地美食",
      "lat": 22.5452,
      "lng": 114.0861,
      "area": "福田",
      "subArea": "华强北",
      "rating": "4.4",
      "price": "45 元",
      "cuisine": "美食广场",
      "recs": [
        "各地美食",
        "特色菜"
      ],
      "source": "小红书",
      "is_brand": false
    },
    {
      "id": "93",
      "name": "宝安中心美食",
      "lat": 22.5545,
      "lng": 113.8875,
      "area": "宝安",
      "subArea": "宝安中心",
      "rating": "4.5",
      "price": "45 元",
      "cuisine": "美食广场",
      "recs": [
        "各地美食",
        "特色菜"
      ],
      "source": "小红书",
      "is_brand": false
    },
    {
      "id": "94",
      "name": "壹方城美食",
      "lat": 22.5555,
      "lng": 113.8885,
      "area": "宝安",
      "subArea": "宝安中心",
      "rating": "4.6",
      "price": "60 元",
      "cuisine": "美食广场",
      "recs": [
        "精品美食",
        "特色菜"
      ],
      "source": "小红书",
      "is_brand": false
    },
    {
      "id": "95",
      "name": "潮汕汤粉王",
      "lat": 22.5445,
      "lng": 113.9445,
      "area": "南山",
      "subArea": "科技园",
      "rating": "4.4",
      "price": "22 元",
      "cuisine": "潮汕菜",
      "recs": [
        "牛肉丸汤粉",
        "牛杂汤"
      ],
      "source": "小红书",
      "is_brand": false
    },
    {
      "id": "96",
      "name": "重庆小面",
      "lat": 22.5425,
      "lng": 113.9465,
      "area": "南山",
      "subArea": "科技园",
      "rating": "4.3",
      "price": "18 元",
      "cuisine": "川菜",
      "recs": [
        "豌杂面",
        "小面"
      ],
      "source": "小红书",
      "is_brand": false
    },
    {
      "id": "97",
      "name": "新疆拌面",
      "lat": 22.5435,
      "lng": 113.9455,
      "area": "南山",
      "subArea": "科技园",
      "rating": "4.3",
      "price": "25 元",
      "cuisine": "西北菜",
      "recs": [
        "拉条子",
        "烤包子"
      ],
      "source": "小红书",
      "is_brand": false
    },
    {
      "id": "98",
      "name": "东北饺子",
      "lat": 22.5415,
      "lng": 113.9475,
      "area": "南山",
      "subArea": "科技园",
      "rating": "4.4",
      "price": "28 元",
      "cuisine": "东北菜",
      "recs": [
        "猪肉白菜饺",
        "锅包肉"
      ],
      "source": "小红书",
      "is_brand": false
    },
    {
      "id": "99",
      "name": "广东肠粉",
      "lat": 22.5405,
      "lng": 113.9485,
      "area": "南山",
      "subArea": "科技园",
      "rating": "4.3",
      "price": "15 元",
      "cuisine": "粤菜",
      "recs": [
        "牛肉肠粉",
        "鸡蛋肠粉"
      ],
      "source": "小红书",
      "is_brand": false
    },
    {
      "id": "100",
      "name": "湖南米粉",
      "lat": 22.5395,
      "lng": 113.9495,
      "area": "南山",
      "subArea": "科技园",
      "rating": "4.3",
      "price": "20 元",
      "cuisine": "湘菜",
      "recs": [
        "牛肉粉",
        "酸辣粉"
      ],
      "source": "小红书",
      "is_brand": false
    },
    {
      "id": "101",
      "name": "湘间田舍",
      "lat": 22.5425,
      "lng": 113.9445,
      "area": "南山",
      "subArea": "科技园",
      "rating": "4.6",
      "price": "45 元",
      "cuisine": "湘菜",
      "recs": [
        "小炒黄牛肉",
        "攸县香干"
      ],
      "source": "小红书",
      "delivery": "美团/饿了么",
      "is_brand": false
    },
    {
      "id": "103",
      "name": "喜家德水饺",
      "lat": 22.5445,
      "lng": 113.9465,
      "area": "南山",
      "subArea": "科技园",
      "rating": "4.6",
      "price": "38 元",
      "cuisine": "东北菜",
      "recs": [
        "虾仁水饺",
        "酸菜水饺"
      ],
      "source": "小红书",
      "delivery": "美团/饿了么",
      "is_brand": true
    },
    {
      "id": "109",
      "name": "太二酸菜鱼",
      "lat": 22.5175,
      "lng": 113.9355,
      "area": "南山",
      "subArea": "海岸城",
      "rating": "4.7",
      "price": "75 元",
      "cuisine": "川菜",
      "recs": [
        "酸菜鱼",
        "红糖糍粑"
      ],
      "source": "小红书",
      "delivery": "美团/饿了么",
      "is_brand": true
    },
    {
      "id": "110",
      "name": "怂重庆火锅",
      "lat": 22.5165,
      "lng": 113.9365,
      "area": "南山",
      "subArea": "后海",
      "rating": "4.6",
      "price": "95 元",
      "cuisine": "火锅",
      "recs": [
        "鲜切黄牛肉",
        "鸭血豆腐"
      ],
      "source": "小红书",
      "delivery": "美团",
      "is_brand": false
    },
    {
      "id": "111",
      "name": "九田家黑牛烤肉",
      "lat": 22.5155,
      "lng": 113.9375,
      "area": "南山",
      "subArea": "后海",
      "rating": "4.5",
      "price": "85 元",
      "cuisine": "烤肉",
      "recs": [
        "黑牛肋条",
        "芝士玉米"
      ],
      "source": "小红书",
      "delivery": "美团/饿了么",
      "is_brand": false
    },
    {
      "id": "112",
      "name": "陈记顺和牛肉火锅",
      "lat": 22.5335,
      "lng": 114.0335,
      "area": "福田",
      "subArea": "车公庙",
      "rating": "4.6",
      "price": "80 元",
      "cuisine": "牛肉火锅",
      "recs": [
        "鲜牛肉",
        "手打牛肉丸"
      ],
      "source": "小红书",
      "delivery": "美团",
      "is_brand": false
    },
    {
      "id": "113",
      "name": "探鱼",
      "lat": 22.5345,
      "lng": 114.0545,
      "area": "福田",
      "subArea": "CBD",
      "rating": "4.5",
      "price": "70 元",
      "cuisine": "烤鱼",
      "recs": [
        "清江鱼",
        "烤牛蛙"
      ],
      "source": "小红书",
      "delivery": "美团/饿了么",
      "is_brand": false
    },
    {
      "id": "114",
      "name": "炉鱼",
      "lat": 22.5355,
      "lng": 114.0655,
      "area": "福田",
      "subArea": "CBD",
      "rating": "4.5",
      "price": "75 元",
      "cuisine": "烤鱼",
      "recs": [
        "湄公鱼",
        "烤包子"
      ],
      "source": "小红书",
      "delivery": "美团",
      "is_brand": false
    },
    {
      "id": "116",
      "name": "木屋烧烤",
      "lat": 22.5455,
      "lng": 114.0865,
      "area": "福田",
      "subArea": "华强北",
      "rating": "4.6",
      "price": "60 元",
      "cuisine": "烧烤",
      "recs": [
        "烤羊肉串",
        "烤茄子"
      ],
      "source": "小红书",
      "delivery": "美团/饿了么",
      "is_brand": false
    },
    {
      "id": "117",
      "name": "冰煮羊",
      "lat": 22.5465,
      "lng": 114.0875,
      "area": "福田",
      "subArea": "华强北",
      "rating": "4.5",
      "price": "90 元",
      "cuisine": "火锅",
      "recs": [
        "冰煮羊肉",
        "鲜切羊肉"
      ],
      "source": "小红书",
      "delivery": "美团",
      "is_brand": false
    },
    {
      "id": "118",
      "name": "八合里牛肉火锅",
      "lat": 22.5545,
      "lng": 113.8875,
      "area": "宝安",
      "subArea": "宝安中心",
      "rating": "4.7",
      "price": "85 元",
      "cuisine": "牛肉火锅",
      "recs": [
        "吊龙",
        "匙柄"
      ],
      "source": "小红书",
      "delivery": "美团",
      "is_brand": false
    },
    {
      "id": "119",
      "name": "蘩楼",
      "lat": 22.5635,
      "lng": 113.8965,
      "area": "宝安",
      "subArea": "翻身",
      "rating": "4.7",
      "price": "80 元",
      "cuisine": "粤菜",
      "recs": [
        "虾饺",
        "红米肠"
      ],
      "source": "小红书",
      "delivery": "美团/饿了么",
      "is_brand": false
    },
    {
      "id": "120",
      "name": "润园四季椰子鸡",
      "lat": 22.5555,
      "lng": 113.8885,
      "area": "宝安",
      "subArea": "宝安中心",
      "rating": "4.6",
      "price": "100 元",
      "cuisine": "海南菜",
      "recs": [
        "椰子鸡",
        "竹荪"
      ],
      "source": "小红书",
      "delivery": "美团",
      "is_brand": false
    },
    {
      "id": "131",
      "name": "湖南土菜馆",
      "lat": 22.5445,
      "lng": 113.9465,
      "area": "南山",
      "subArea": "科技园",
      "rating": "4.7",
      "price": "35 元",
      "cuisine": "湘菜",
      "recs": [
        "小炒黄牛肉",
        "攸县香干"
      ],
      "source": "小红书",
      "delivery": "美团/饿了么",
      "tags": [
        "本地老店",
        "分量足"
      ]
    },
    {
      "id": "132",
      "name": "重庆人家",
      "lat": 22.5435,
      "lng": 113.9455,
      "area": "南山",
      "subArea": "科技园",
      "rating": "4.6",
      "price": "32 元",
      "cuisine": "川菜",
      "recs": [
        "水煮肉片",
        "麻婆豆腐"
      ],
      "source": "小红书",
      "delivery": "美团/饿了么",
      "tags": [
        "正宗川菜",
        "下饭"
      ]
    },
    {
      "id": "133",
      "name": "潮汕牛肉粿条",
      "lat": 22.5425,
      "lng": 113.9445,
      "area": "南山",
      "subArea": "科技园",
      "rating": "4.7",
      "price": "25 元",
      "cuisine": "潮汕菜",
      "recs": [
        "牛肉粿条",
        "牛杂汤"
      ],
      "source": "小红书",
      "delivery": "美团/饿了么",
      "tags": "现切牛肉"
    },
    {
      "id": "134",
      "name": "隆江猪脚饭 (老店)",
      "lat": 22.5415,
      "lng": 113.9435,
      "area": "南山",
      "subArea": "科技园",
      "rating": "4.6",
      "price": "22 元",
      "cuisine": "粤菜",
      "recs": [
        "猪脚饭",
        "卤蛋"
      ],
      "source": "小红书",
      "delivery": "美团/饿了么",
      "tags": "打工人食堂"
    },
    {
      "id": "135",
      "name": "兰州拉面 (清真)",
      "lat": 22.5405,
      "lng": 113.9425,
      "area": "南山",
      "subArea": "科技园",
      "rating": "4.5",
      "price": "18 元",
      "cuisine": "西北菜",
      "recs": [
        "牛肉拉面",
        "炒拉条"
      ],
      "source": "小红书",
      "delivery": "美团/饿了么",
      "tags": [
        "清真",
        "现拉"
      ]
    },
    {
      "id": "136",
      "name": "沙县小吃 (老店)",
      "lat": 22.5395,
      "lng": 113.9415,
      "area": "南山",
      "subArea": "科技园",
      "rating": "4.4",
      "price": "16 元",
      "cuisine": "福建菜",
      "recs": [
        "拌面",
        "扁肉"
      ],
      "source": "小红书",
      "delivery": "美团/饿了么",
      "tags": "平价"
    },
    {
      "id": "137",
      "name": "江西瓦罐汤",
      "lat": 22.5455,
      "lng": 113.9475,
      "area": "南山",
      "subArea": "科技园",
      "rating": "4.6",
      "price": "20 元",
      "cuisine": "赣菜",
      "recs": [
        "肉饼汤",
        "拌粉"
      ],
      "source": "小红书",
      "delivery": "美团/饿了么",
      "tags": "早餐"
    },
    {
      "id": "138",
      "name": "广西螺蛳粉 (正宗)",
      "lat": 22.5465,
      "lng": 113.9485,
      "area": "南山",
      "subArea": "科技园",
      "rating": "4.5",
      "price": "22 元",
      "cuisine": "广西菜",
      "recs": [
        "螺蛳粉",
        "炸蛋"
      ],
      "source": "小红书",
      "delivery": "美团/饿了么",
      "tags": "柳州正宗"
    },
    {
      "id": "139",
      "name": "深大后山烤肉",
      "lat": 22.5325,
      "lng": 113.9395,
      "area": "南山",
      "subArea": "深大",
      "rating": "4.7",
      "price": "40 元",
      "cuisine": "烧烤",
      "recs": [
        "烤五花肉",
        "烤馒头"
      ],
      "source": "小红书",
      "delivery": "美团",
      "tags": "学生推荐"
    },
    {
      "id": "140",
      "name": "南头古城私房菜",
      "lat": 22.5435,
      "lng": 113.9225,
      "area": "南山",
      "subArea": "南头",
      "rating": "4.8",
      "price": "50 元",
      "cuisine": "家常菜",
      "recs": [
        "红烧肉",
        "清蒸鱼"
      ],
      "source": "小红书",
      "delivery": "美团/饿了么",
      "tags": "古城里"
    },
    {
      "id": "141",
      "name": "东北家常菜",
      "lat": 22.5345,
      "lng": 114.0345,
      "area": "福田",
      "subArea": "车公庙",
      "rating": "4.6",
      "price": "38 元",
      "cuisine": "东北菜",
      "recs": [
        "锅包肉",
        "地三鲜"
      ],
      "source": "小红书",
      "delivery": "美团/饿了么",
      "tags": "分量大"
    },
    {
      "id": "142",
      "name": "湖南米粉 (郴州)",
      "lat": 22.5355,
      "lng": 114.0555,
      "area": "福田",
      "subArea": "CBD",
      "rating": "4.7",
      "price": "20 元",
      "cuisine": "湘菜",
      "recs": [
        "鱼粉",
        "杀猪粉"
      ],
      "source": "小红书",
      "delivery": "美团/饿了么",
      "tags": "郴州正宗"
    },
    {
      "id": "143",
      "name": "四川冒菜",
      "lat": 22.5365,
      "lng": 114.0665,
      "area": "福田",
      "subArea": "岗厦",
      "rating": "4.5",
      "price": "28 元",
      "cuisine": "川菜",
      "recs": [
        "冒菜",
        "冒烤鸭"
      ],
      "source": "小红书",
      "delivery": "美团/饿了么",
      "tags": "一人食"
    },
    {
      "id": "144",
      "name": "潮汕砂锅粥 (夜宵)",
      "lat": 22.5645,
      "lng": 113.8975,
      "area": "宝安",
      "subArea": "翻身",
      "rating": "4.7",
      "price": "45 元",
      "cuisine": "潮汕菜",
      "recs": [
        "虾蟹粥",
        "蚝仔烙"
      ],
      "source": "小红书",
      "delivery": "美团",
      "tags": "夜宵"
    },
    {
      "id": "145",
      "name": "客家酿豆腐",
      "lat": 22.5565,
      "lng": 113.8895,
      "area": "宝安",
      "subArea": "宝安中心",
      "rating": "4.6",
      "price": "35 元",
      "cuisine": "客家菜",
      "recs": [
        "酿豆腐",
        "盐焗鸡"
      ],
      "source": "小红书",
      "delivery": "美团/饿了么",
      "tags": "客家正宗"
    },
    {
      "id": "146",
      "name": "烤冷面 (路边摊)",
      "lat": 22.5445,
      "lng": 113.9455,
      "area": "南山",
      "subArea": "科技园",
      "rating": "4.5",
      "price": "12 元",
      "cuisine": "小吃",
      "recs": [
        "烤冷面",
        "手抓饼"
      ],
      "source": "小红书",
      "delivery": "美团",
      "tags": "路边摊"
    },
    {
      "id": "147",
      "name": "煎饼果子 (山东)",
      "lat": 22.5455,
      "lng": 113.9465,
      "area": "南山",
      "subArea": "科技园",
      "rating": "4.4",
      "price": "10 元",
      "cuisine": "小吃",
      "recs": [
        "煎饼果子",
        "豆浆"
      ],
      "source": "小红书",
      "delivery": "美团",
      "tags": "山东正宗"
    },
    {
      "id": "148",
      "name": "臭豆腐 (长沙)",
      "lat": 22.5465,
      "lng": 113.9475,
      "area": "南山",
      "subArea": "科技园",
      "rating": "4.5",
      "price": "15 元",
      "cuisine": "小吃",
      "recs": [
        "臭豆腐",
        "糖油粑粑"
      ],
      "source": "小红书",
      "delivery": "美团",
      "tags": "长沙正宗"
    },
    {
      "id": "149",
      "name": "肉夹馍 (陕西)",
      "lat": 22.5475,
      "lng": 113.9485,
      "area": "南山",
      "subArea": "科技园",
      "rating": "4.6",
      "price": "12 元",
      "cuisine": "小吃",
      "recs": [
        "肉夹馍",
        "凉皮"
      ],
      "source": "小红书",
      "delivery": "美团/饿了么",
      "tags": "陕西正宗"
    },
    {
      "id": "150",
      "name": "生煎包 (上海)",
      "lat": 22.5485,
      "lng": 113.9495,
      "area": "南山",
      "subArea": "科技园",
      "rating": "4.5",
      "price": "18 元",
      "cuisine": "小吃",
      "recs": [
        "生煎包",
        "小笼包"
      ],
      "source": "小红书",
      "delivery": "美团/饿了么",
      "tags": "上海正宗"
    }
  ]
}